{"crs":{"type":"name","properties":{"name":"urn:ogc:def:crs:OGC:1.3:CRS84"}},"type":"FeatureCollection","name":"dpss","features":[{"geometry":{"type":"Point","coordinates":[-118.2539814053997,33.93899202325502]},"type":"Feature","properties":{"CALFRESH":"B","DIST":"27","Y_COORD":1800277.36542272,"MEDICAL":"B","X_COORD":6484628.54876994,"HELPLINE2":"(626) 569-1399","STREET":"10728 S. Central Ave.","LINK":"http://dpss.lacounty.gov/dpss/offices/default.cfm?orgid=274","GAIN":null,"HELPLINE":"(310) 258-7400","CALWORKS":"B","GENERALREL":"B","ZIP":"90059","REFUGEE":null,"STATE":"CA","ADDRESSLIN":null,"CAPI":null,"GROW":"B","CITY":"Los Angeles","NAME":"South Central","IHSS":null,"TELEPHONE":"(866) 613-3777","ORGID":274}},{"geometry":{"type":"Point","coordinates":[-118.21646350967931,34.02301280095586]},"type":"Feature","properties":{"CALFRESH":"B","DIST":"15","Y_COORD":1830827.59281534,"MEDICAL":"B","X_COORD":6496074.37570267,"HELPLINE2":null,"STREET":"2855 E. Olympic Blvd.","LINK":"http://dpss.lacounty.gov/dpss/offices/default.cfm?orgid=276","GAIN":null,"HELPLINE":"(626) 569-1399","CALWORKS":"B","GENERALREL":"B","ZIP":"90023","REFUGEE":null,"STATE":"CA","ADDRESSLIN":null,"CAPI":null,"GROW":"B","CITY":"Los Angeles","NAME":"Metro East","IHSS":null,"TELEPHONE":"(866) 613-3777","ORGID":276}},{"geometry":{"type":"Point","coordinates":[-118.30960987678493,33.92382591502865]},"type":"Feature","properties":{"CALFRESH":"B","DIST":"08","Y_COORD":1794805.40884579,"MEDICAL":"B","X_COORD":6467738.26406028,"HELPLINE2":"(310) 258-7400","STREET":"1819 W. 120th St.","LINK":"http://dpss.lacounty.gov/dpss/offices/default.cfm?orgid=277","GAIN":null,"HELPLINE":"(626) 569-1399","CALWORKS":null,"GENERALREL":"B","ZIP":"90047-5102","REFUGEE":null,"STATE":"CA","ADDRESSLIN":null,"CAPI":null,"GROW":"B","CITY":"Los Angeles","NAME":"Southwest Special","IHSS":null,"TELEPHONE":"(866) 613-3777","ORGID":277}},{"geometry":{"type":"Point","coordinates":[-117.93151420991867,34.00038326678765]},"type":"Feature","properties":{"CALFRESH":null,"DIST":"80","Y_COORD":1822528.69118941,"MEDICAL":"B","X_COORD":6582424.70369835,"HELPLINE2":null,"STREET":"17171 E. Gale Ave.","LINK":"http://dpss.lacounty.gov/dpss/offices/default.cfm?orgid=305","GAIN":null,"HELPLINE":"(626) 569-1399","CALWORKS":null,"GENERALREL":null,"ZIP":"91745","REFUGEE":null,"STATE":"CA","ADDRESSLIN":null,"CAPI":null,"GROW":null,"CITY":"City of Industry","NAME":"Medi-Cal LTC","IHSS":null,"TELEPHONE":"(866) 613-3777","ORGID":305}},{"geometry":{"type":"Point","coordinates":[-118.2212336059511,33.88876961570741]},"type":"Feature","properties":{"CALFRESH":"B","DIST":"26","Y_COORD":1781976.84128185,"MEDICAL":"B","X_COORD":6494521.42850123,"HELPLINE2":"(310) 258-7400","STREET":"211 E. Alondra Blvd.","LINK":"http://dpss.lacounty.gov/dpss/offices/default.cfm?orgid=322","GAIN":null,"HELPLINE":"(866) 613-3777","CALWORKS":"B","GENERALREL":null,"ZIP":"90220","REFUGEE":null,"STATE":"CA","ADDRESSLIN":null,"CAPI":null,"GROW":null,"CITY":"Compton","NAME":"Compton","IHSS":null,"TELEPHONE":"(866) 613-3777","ORGID":322}},{"geometry":{"type":"Point","coordinates":[-118.26549760433626,34.13721382177654]},"type":"Feature","properties":{"CALFRESH":"B","DIST":"02","Y_COORD":1872423.00226208,"MEDICAL":"B","X_COORD":6481325.97812094,"HELPLINE2":"(626) 569-1399","STREET":"4680 San Fernando Rd.","LINK":"http://dpss.lacounty.gov/dpss/offices/default.cfm?orgid=325","GAIN":null,"HELPLINE":"(818) 701-8200","CALWORKS":"B","GENERALREL":"B","ZIP":"91204","REFUGEE":"B","STATE":"CA","ADDRESSLIN":null,"CAPI":null,"GROW":"B","CITY":"Glendale","NAME":"Glendale","IHSS":null,"TELEPHONE":"(866) 613-3777","ORGID":325}},{"geometry":{"type":"Point","coordinates":[-118.21380457548791,33.87208184492678]},"type":"Feature","properties":{"CALFRESH":"B","DIST":"07","Y_COORD":1775898.89337219,"MEDICAL":"B","X_COORD":6496763.24610332,"HELPLINE2":"(626) 569-1399","STREET":"17600 B Santa Fe Ave.","LINK":"http://dpss.lacounty.gov/dpss/offices/default.cfm?orgid=332","GAIN":null,"HELPLINE":"(310) 258-7400","CALWORKS":null,"GENERALREL":"B","ZIP":"90221","REFUGEE":null,"STATE":"CA","ADDRESSLIN":null,"CAPI":null,"GROW":"B","CITY":"Rancho Dominguez","NAME":"South Special","IHSS":null,"TELEPHONE":"(866) 613-3777","ORGID":332}},{"geometry":{"type":"Point","coordinates":[-118.21380457548791,33.87208184492678]},"type":"Feature","properties":{"CALFRESH":"B","DIST":"31","Y_COORD":1775898.89337219,"MEDICAL":"B","X_COORD":6496763.24610332,"HELPLINE2":"(626) 569-1399","STREET":"17600 A Santa Fe Ave.","LINK":"http://dpss.lacounty.gov/dpss/offices/default.cfm?orgid=333","GAIN":null,"HELPLINE":"(310) 258-7400","CALWORKS":"B","GENERALREL":null,"ZIP":"90221","REFUGEE":"B","STATE":"CA","ADDRESSLIN":null,"CAPI":null,"GROW":null,"CITY":"Rancho Dominguez","NAME":"South Family","IHSS":null,"TELEPHONE":"(866) 613-3777","ORGID":333}},{"geometry":{"type":"Point","coordinates":[-118.28135216687,34.060674190080555]},"type":"Feature","properties":{"CALFRESH":"B","DIST":"38","Y_COORD":1844581.94956415,"MEDICAL":"B","X_COORD":6476450.3680044,"HELPLINE2":"(626) 569-1399","STREET":"2601 Wilshire Blvd.","LINK":"http://dpss.lacounty.gov/dpss/offices/default.cfm?orgid=335","GAIN":"B","HELPLINE":"(866) 613-3777","CALWORKS":"B","GENERALREL":null,"ZIP":"90057","REFUGEE":"B","STATE":"CA","ADDRESSLIN":null,"CAPI":null,"GROW":null,"CITY":"Los Angeles","NAME":"Metro North","IHSS":null,"TELEPHONE":"(866) 613-3777","ORGID":335}},{"geometry":{"type":"Point","coordinates":[-118.27840497437903,34.0613125649427]},"type":"Feature","properties":{"CALFRESH":"B","DIST":"10","Y_COORD":1844811.78022037,"MEDICAL":"B","X_COORD":6477343.65850123,"HELPLINE2":"(626) 569-1399","STREET":"2415 W. 6th St.","LINK":"http://dpss.lacounty.gov/dpss/offices/default.cfm?orgid=336","GAIN":null,"HELPLINE":"(310) 258-7400","CALWORKS":null,"GENERALREL":"B","ZIP":"90057","REFUGEE":null,"STATE":"CA","ADDRESSLIN":null,"CAPI":"B","GROW":"B","CITY":"Los Angeles","NAME":"Wilshire","IHSS":null,"TELEPHONE":"(866) 613-3777","ORGID":336}},{"geometry":{"type":"Point","coordinates":[-118.1327110289652,34.16228110168227]},"type":"Feature","properties":{"CALFRESH":"B","DIST":"03","Y_COORD":1881465.8438705,"MEDICAL":"B","X_COORD":6521519.76196637,"HELPLINE2":"(626) 569-1399","STREET":"955 N. Lake Ave.","LINK":"http://dpss.lacounty.gov/dpss/offices/default.cfm?orgid=347","GAIN":null,"HELPLINE":"(866) 613-3777","CALWORKS":"B","GENERALREL":"B","ZIP":"91104","REFUGEE":null,"STATE":"CA","ADDRESSLIN":null,"CAPI":null,"GROW":"B","CITY":"Pasadena","NAME":"Pasadena","IHSS":null,"TELEPHONE":"(866) 613-3777","ORGID":347}},{"geometry":{"type":"Point","coordinates":[-118.43517129825257,34.0367777813192]},"type":"Feature","properties":{"CALFRESH":"B","DIST":"60","Y_COORD":1836051.71268951,"MEDICAL":"B","X_COORD":6429824.02586858,"HELPLINE2":"(626) 569-1399","STREET":"11110 W. Pico Blvd.","LINK":"http://dpss.lacounty.gov/dpss/offices/default.cfm?orgid=350","GAIN":null,"HELPLINE":"(310) 258-7400","CALWORKS":"B","GENERALREL":"B","ZIP":"90064","REFUGEE":null,"STATE":"CA","ADDRESSLIN":null,"CAPI":null,"GROW":"B","CITY":"Los Angeles","NAME":"Rancho Park","IHSS":null,"TELEPHONE":"(866) 613-3777","ORGID":350}},{"geometry":{"type":"Point","coordinates":[-118.23631184963014,34.04448556576312]},"type":"Feature","properties":{"CALFRESH":"B","DIST":"14","Y_COORD":1838655.48197463,"MEDICAL":"B","X_COORD":6490078.35803309,"HELPLINE2":"(310) 258-7400","STREET":"813 E. Fourth Place","LINK":"http://dpss.lacounty.gov/dpss/offices/default.cfm?orgid=355","GAIN":null,"HELPLINE":"(626) 569-1399","CALWORKS":null,"GENERALREL":"B","ZIP":"90013","REFUGEE":null,"STATE":"CA","ADDRESSLIN":null,"CAPI":null,"GROW":"B","CITY":"Los Angeles","NAME":"Civic Center","IHSS":null,"TELEPHONE":"(866) 613-3777","ORGID":355}},{"geometry":{"type":"Point","coordinates":[-118.18540722680756,33.96041168190445]},"type":"Feature","properties":{"CALFRESH":"B","DIST":"06","Y_COORD":1808026.97247735,"MEDICAL":"B","X_COORD":6505442.94798303,"HELPLINE2":"(626) 569-1399","STREET":"8130 S. Atlantic Ave.","LINK":"http://dpss.lacounty.gov/dpss/offices/default.cfm?orgid=357","GAIN":null,"HELPLINE":"(310) 258-7400","CALWORKS":"B","GENERALREL":null,"ZIP":"90201","REFUGEE":null,"STATE":"CA","ADDRESSLIN":null,"CAPI":null,"GROW":null,"CITY":"Cudahy","NAME":"Cudahy","IHSS":null,"TELEPHONE":"(866) 613-3777","ORGID":357}},{"geometry":{"type":"Point","coordinates":[-118.37257966925932,34.23593528146525]},"type":"Feature","properties":{"CALFRESH":"B","DIST":"32","Y_COORD":1908452.13719745,"MEDICAL":null,"X_COORD":6449055.7898859,"HELPLINE2":null,"STREET":"9188 Glenoaks Blvd.","LINK":"http://dpss.lacounty.gov/dpss/offices/default.cfm?orgid=386","GAIN":null,"HELPLINE":"(818) 701-8200","CALWORKS":null,"GENERALREL":"B","ZIP":"91352","REFUGEE":null,"STATE":"CA","ADDRESSLIN":null,"CAPI":null,"GROW":"B","CITY":"Sun Valley","NAME":"San Fernando Sub Office","IHSS":null,"TELEPHONE":"(818) 394-3801","ORGID":386}},{"geometry":{"type":"Point","coordinates":[-118.12520718893163,34.669619360539194]},"type":"Feature","properties":{"CALFRESH":"B","DIST":"34","Y_COORD":2066094.14789846,"MEDICAL":"B","X_COORD":6524019.75826784,"HELPLINE2":"(310) 258-7400","STREET":"349-B East Ave. K-6","LINK":"http://dpss.lacounty.gov/dpss/offices/default.cfm?orgid=403","GAIN":null,"HELPLINE":"(626) 569-1399","CALWORKS":"B","GENERALREL":null,"ZIP":"93535","REFUGEE":null,"STATE":"CA","ADDRESSLIN":null,"CAPI":null,"GROW":null,"CITY":"Lancaster","NAME":"Lancaster","IHSS":null,"TELEPHONE":"(866) 613-3777","ORGID":403}},{"geometry":{"type":"Point","coordinates":[-118.27321427673864,34.025287443580496]},"type":"Feature","properties":{"CALFRESH":"B","DIST":"70","Y_COORD":1831697.26498437,"MEDICAL":"B","X_COORD":6478880.17266626,"HELPLINE2":"(626) 569-1399","STREET":"2707 S. Grand Ave.","LINK":"http://dpss.lacounty.gov/dpss/offices/default.cfm?orgid=408","GAIN":null,"HELPLINE":"(866) 613-3777","CALWORKS":null,"GENERALREL":"B","ZIP":"90007","REFUGEE":null,"STATE":"CA","ADDRESSLIN":null,"CAPI":null,"GROW":"B","CITY":"Los Angeles","NAME":"Metro Special","IHSS":null,"TELEPHONE":"(866) 613-3777","ORGID":408}},{"geometry":{"type":"Point","coordinates":[-118.15314041489232,34.01972090381453]},"type":"Feature","properties":{"CALFRESH":"B","DIST":"05","Y_COORD":1829594.32919819,"MEDICAL":"B","X_COORD":6515260.55581654,"HELPLINE2":"(626) 569-1399","STREET":"5445 Whittier Blvd.","LINK":"http://dpss.lacounty.gov/dpss/offices/default.cfm?orgid=409","GAIN":null,"HELPLINE":"(310) 258-7400","CALWORKS":"B","GENERALREL":null,"ZIP":"90022","REFUGEE":null,"STATE":"CA","ADDRESSLIN":null,"CAPI":null,"GROW":null,"CITY":"Los Angeles","NAME":"Belvedere","IHSS":null,"TELEPHONE":"(866) 613-3777","ORGID":409}},{"geometry":{"type":"Point","coordinates":[-118.24248955023474,33.981870050212564]},"type":"Feature","properties":{"CALFRESH":"B","DIST":"17","Y_COORD":1815872.95036942,"MEDICAL":"B","X_COORD":6488151.9170713,"HELPLINE2":"(626) 569-1399","STREET":"1740 E. Gage Ave.","LINK":"http://dpss.lacounty.gov/dpss/offices/default.cfm?orgid=431","GAIN":null,"HELPLINE":"(866) 613-3777","CALWORKS":"B","GENERALREL":null,"ZIP":"90001","REFUGEE":null,"STATE":"CA","ADDRESSLIN":null,"CAPI":null,"GROW":null,"CITY":"Los Angeles","NAME":"Florence","IHSS":null,"TELEPHONE":"(323) 586-7379","ORGID":431}},{"geometry":{"type":"Point","coordinates":[-118.27252541949002,34.0263706338572]},"type":"Feature","properties":{"CALFRESH":"B","DIST":"13","Y_COORD":1832090.89168568,"MEDICAL":"B","X_COORD":6479089.97106627,"HELPLINE2":"(626) 569-1399","STREET":"2615 S. Grand Ave.","LINK":"http://dpss.lacounty.gov/dpss/offices/default.cfm?orgid=432","GAIN":null,"HELPLINE":"(310) 258-7400","CALWORKS":"B","GENERALREL":null,"ZIP":"90007","REFUGEE":null,"STATE":"CA","ADDRESSLIN":null,"CAPI":null,"GROW":null,"CITY":"Los Angeles","NAME":"Metro Family","IHSS":null,"TELEPHONE":"(866) 613-3777","ORGID":432}},{"geometry":{"type":"Point","coordinates":[-118.29133649675133,33.96338403428051]},"type":"Feature","properties":{"CALFRESH":"B","DIST":"83","Y_COORD":1809184.84811431,"MEDICAL":"A","X_COORD":6473323.69004314,"HELPLINE2":"(626) 569-1399","STREET":"8300 S. Vermont Ave.","LINK":"http://dpss.lacounty.gov/dpss/offices/default.cfm?orgid=433","GAIN":null,"HELPLINE":"(310) 258-7400","CALWORKS":"B","GENERALREL":null,"ZIP":"90044","REFUGEE":"B","STATE":"CA","ADDRESSLIN":null,"CAPI":null,"GROW":null,"CITY":"Los Angeles","NAME":"Southwest Family","IHSS":null,"TELEPHONE":"(866) 613-3777","ORGID":433}},{"geometry":{"type":"Point","coordinates":[-118.29173684486412,34.01582914604253]},"type":"Feature","properties":{"CALFRESH":"I","DIST":"12","Y_COORD":1828270.98737296,"MEDICAL":null,"X_COORD":6473257.68550542,"HELPLINE2":null,"STREET":"3833 S. Vermont Ave.","LINK":"http://dpss.lacounty.gov/dpss/offices/default.cfm?orgid=434","GAIN":null,"HELPLINE":null,"CALWORKS":"I","GENERALREL":null,"ZIP":"90037","REFUGEE":null,"STATE":"CA","ADDRESSLIN":null,"CAPI":null,"GROW":null,"CITY":"Los Angeles","NAME":"Exposition Park","IHSS":null,"TELEPHONE":"(866) 613-3777","ORGID":434}},{"geometry":{"type":"Point","coordinates":[-118.06851063716641,34.0697590778403]},"type":"Feature","properties":{"CALFRESH":"B","DIST":"20","Y_COORD":1847775.92332713,"MEDICAL":"B","X_COORD":6540918.30636844,"HELPLINE2":"(310) 258-7400","STREET":"3352 Aerojet Ave.","LINK":"http://dpss.lacounty.gov/dpss/offices/default.cfm?orgid=435","GAIN":null,"HELPLINE":"(626) 569-1399","CALWORKS":"B","GENERALREL":"B","ZIP":"91731","REFUGEE":"B","STATE":"CA","ADDRESSLIN":null,"CAPI":null,"GROW":"B","CITY":"El Monte","NAME":"San Gabriel Valley","IHSS":null,"TELEPHONE":"(866) 613-3777","ORGID":435}},{"geometry":{"type":"Point","coordinates":[-118.06851122643603,34.06972726167528]},"type":"Feature","properties":{"CALFRESH":"B","DIST":"04","Y_COORD":1847764.34495912,"MEDICAL":"B","X_COORD":6540918.12000044,"HELPLINE2":"(310) 258-7400","STREET":"3350 Aerojet Ave.","LINK":"http://dpss.lacounty.gov/dpss/offices/default.cfm?orgid=436","GAIN":null,"HELPLINE":"(626) 569-1399","CALWORKS":"B","GENERALREL":null,"ZIP":"91731","REFUGEE":null,"STATE":"CA","ADDRESSLIN":null,"CAPI":null,"GROW":null,"CITY":"El Monte","NAME":"El Monte","IHSS":null,"TELEPHONE":"(866) 613-3777","ORGID":436}},{"geometry":{"type":"Point","coordinates":[-117.78638593379516,34.0613147000398]},"type":"Feature","properties":{"CALFRESH":"B","DIST":"36","Y_COORD":1844764.52876432,"MEDICAL":"B","X_COORD":6626365.90452802,"HELPLINE2":"(626) 569-1399","STREET":"2040 W. Holt Ave.","LINK":"http://dpss.lacounty.gov/dpss/offices/default.cfm?orgid=437","GAIN":null,"HELPLINE":"(866) 613-3777","CALWORKS":"B","GENERALREL":"B","ZIP":"91768","REFUGEE":null,"STATE":"CA","ADDRESSLIN":null,"CAPI":null,"GROW":"B","CITY":"Pomona","NAME":"Pomona","IHSS":null,"TELEPHONE":"(866) 613-3777","ORGID":437}},{"geometry":{"type":"Point","coordinates":[-118.19538427230287,34.07588417499997]},"type":"Feature","properties":{"CALFRESH":"B","DIST":"66","Y_COORD":1850055.39750525,"MEDICAL":"B","X_COORD":6502499.15138866,"HELPLINE2":null,"STREET":"4077 N. Mission Rd.","LINK":"http://dpss.lacounty.gov/dpss/offices/default.cfm?orgid=438","GAIN":null,"HELPLINE":"(866) 613-3777","CALWORKS":"B","GENERALREL":null,"ZIP":"90032","REFUGEE":null,"STATE":"CA","ADDRESSLIN":null,"CAPI":null,"GROW":null,"CITY":"Los Angeles","NAME":"Lincoln Heights Sub Office","IHSS":null,"TELEPHONE":"(866) 613-3777","ORGID":438}},{"geometry":{"type":"Point","coordinates":[-118.07277111936418,33.915286573403044]},"type":"Feature","properties":{"CALFRESH":"B","DIST":"40","Y_COORD":1791561.08193077,"MEDICAL":"B","X_COORD":6539587.3265272,"HELPLINE2":"(310) 258-7400","STREET":"12727 Norwalk Blvd.","LINK":"http://dpss.lacounty.gov/dpss/offices/default.cfm?orgid=452","GAIN":null,"HELPLINE":"(626) 569-1399","CALWORKS":"B","GENERALREL":null,"ZIP":"90650","REFUGEE":null,"STATE":"CA","ADDRESSLIN":null,"CAPI":null,"GROW":null,"CITY":"Norwalk","NAME":"Norwalk","IHSS":null,"TELEPHONE":"(866) 613-3777","ORGID":452}},{"geometry":{"type":"Point","coordinates":[-118.20949526898042,33.865046273481006]},"type":"Feature","properties":{"CALFRESH":"B","DIST":"62","Y_COORD":1773335.72727501,"MEDICAL":"B","X_COORD":6498066.05930428,"HELPLINE2":"(626) 569-1399","STREET":"2961 E. Victoria St.","LINK":"http://dpss.lacounty.gov/dpss/offices/default.cfm?orgid=581","GAIN":null,"HELPLINE":"(310) 258-7400","CALWORKS":"B","GENERALREL":null,"ZIP":"90221","REFUGEE":null,"STATE":"CA","ADDRESSLIN":null,"CAPI":null,"GROW":null,"CITY":"Rancho Dominguez","NAME":"Paramount","IHSS":null,"TELEPHONE":"(866) 613-3777","ORGID":581}},{"geometry":{"type":"Point","coordinates":[-118.47611252874752,34.416469106459935]},"type":"Feature","properties":{"CALFRESH":"B","DIST":"51","Y_COORD":1974283.19256495,"MEDICAL":"B","X_COORD":6418074.75553403,"HELPLINE2":"(626) 569-1399","STREET":"27233 Camp Plenty Rd.","LINK":"http://dpss.lacounty.gov/dpss/offices/default.cfm?orgid=585","GAIN":null,"HELPLINE":"(818) 701-8200","CALWORKS":"B","GENERALREL":null,"ZIP":"91351","REFUGEE":null,"STATE":"CA","ADDRESSLIN":null,"CAPI":null,"GROW":null,"CITY":"Canyon Country","NAME":"Santa Clarita Sub Office","IHSS":null,"TELEPHONE":"(866) 613-3777","ORGID":585}},{"geometry":{"type":"Point","coordinates":[-118.12546640808846,34.66961803242241]},"type":"Feature","properties":{"CALFRESH":null,"DIST":"35","Y_COORD":2066093.76192403,"MEDICAL":null,"X_COORD":6523941.81640829,"HELPLINE2":"(661) 723-4290","STREET":"335-C East Ave. K-6","LINK":"http://dpss.lacounty.gov/dpss/offices/default.cfm?orgid=681","GAIN":null,"HELPLINE":"(866) 514-9911","CALWORKS":null,"GENERALREL":null,"ZIP":"93535","REFUGEE":null,"STATE":"CA","ADDRESSLIN":null,"CAPI":null,"GROW":null,"CITY":"Lancaster","NAME":"IHSS Ops I - Lancaster","IHSS":"B","TELEPHONE":"(866) 514-9911","ORGID":681}},{"geometry":{"type":"Point","coordinates":[-118.59841454109883,34.242851299932305]},"type":"Feature","properties":{"CALFRESH":null,"DIST":"01","Y_COORD":1911298.64230249,"MEDICAL":null,"X_COORD":6380813.64270937,"HELPLINE2":"(818) 718-4495","STREET":"21415-21615 Plummer St.","LINK":"http://dpss.lacounty.gov/dpss/offices/default.cfm?orgid=702","GAIN":null,"HELPLINE":"(888) 822-9622","CALWORKS":null,"GENERALREL":null,"ZIP":"91311","REFUGEE":null,"STATE":"CA","ADDRESSLIN":null,"CAPI":null,"GROW":null,"CITY":"Chatsworth","NAME":"IHSS Ops I Chatsworth","IHSS":"B","TELEPHONE":"(818) 718-4362","ORGID":702}},{"geometry":{"type":"Point","coordinates":[-118.34130749593936,34.20640680147798]},"type":"Feature","properties":{"CALFRESH":null,"DIST":"73","Y_COORD":1897672.6857416,"MEDICAL":null,"X_COORD":6458471.16645165,"HELPLINE2":"(818) 557-4102","STREET":"3307 N. Glenoaks Blvd.","LINK":"http://dpss.lacounty.gov/dpss/offices/default.cfm?orgid=703","GAIN":null,"HELPLINE":"(866) 544-9048","CALWORKS":null,"GENERALREL":null,"ZIP":"91504","REFUGEE":null,"STATE":"CA","ADDRESSLIN":null,"CAPI":null,"GROW":null,"CITY":"Burbank","NAME":"IHSS Ops I - Burbank","IHSS":"B","TELEPHONE":"(818) 557-4103","ORGID":703}},{"geometry":{"type":"Point","coordinates":[-117.74714638443625,34.05504887865646]},"type":"Feature","properties":{"CALFRESH":null,"DIST":"19","Y_COORD":1842511.85925676,"MEDICAL":null,"X_COORD":6638256.45738386,"HELPLINE2":null,"STREET":"360 E. Mission Blvd.","LINK":"http://dpss.lacounty.gov/dpss/offices/default.cfm?orgid=704","GAIN":null,"HELPLINE":"(866) 465-0905","CALWORKS":null,"GENERALREL":null,"ZIP":"91766","REFUGEE":null,"STATE":"CA","ADDRESSLIN":null,"CAPI":null,"GROW":null,"CITY":"Pomona","NAME":"IHSS Ops II - Pomona","IHSS":"B","TELEPHONE":"(909) 802-2474","ORGID":704}},{"geometry":{"type":"Point","coordinates":[-118.068495924774,34.0705544747554]},"type":"Feature","properties":{"CALFRESH":null,"DIST":"74","Y_COORD":1848065.3804794,"MEDICAL":null,"X_COORD":6540922.95942444,"HELPLINE2":null,"STREET":"3400 Aerojet Avenue","LINK":"http://dpss.lacounty.gov/dpss/offices/default.cfm?orgid=705","GAIN":null,"HELPLINE":"(888) 322-2204","CALWORKS":null,"GENERALREL":null,"ZIP":"91731","REFUGEE":null,"STATE":"CA","ADDRESSLIN":null,"CAPI":null,"GROW":null,"CITY":"El Monte","NAME":"IHSS Ops II El Monte","IHSS":"B","TELEPHONE":"(626) 569-4564","ORGID":705}},{"geometry":{"type":"Point","coordinates":[-118.27321427673864,34.025287443580496]},"type":"Feature","properties":{"CALFRESH":null,"DIST":"47","Y_COORD":1831697.26498437,"MEDICAL":null,"X_COORD":6478880.17266626,"HELPLINE2":null,"STREET":"2707 S. Grand Ave.","LINK":"http://dpss.lacounty.gov/dpss/offices/default.cfm?orgid=706","GAIN":null,"HELPLINE":"(866) 512-2857","CALWORKS":null,"GENERALREL":null,"ZIP":"90007","REFUGEE":null,"STATE":"CA","ADDRESSLIN":null,"CAPI":null,"GROW":null,"CITY":"Los Angeles","NAME":"IHSS Ops III Metro IHSS","IHSS":"B","TELEPHONE":"(213) 744-3300","ORGID":706}},{"geometry":{"type":"Point","coordinates":[-118.35242485366,33.92358258136274]},"type":"Feature","properties":{"CALFRESH":null,"DIST":"77","Y_COORD":1794759.62970952,"MEDICAL":null,"X_COORD":6454748.94016618,"HELPLINE2":null,"STREET":"12000 S. Hawthorne Blvd.","LINK":"http://dpss.lacounty.gov/dpss/offices/default.cfm?orgid=707","GAIN":null,"HELPLINE":"(866) 512-2856","CALWORKS":null,"GENERALREL":null,"ZIP":"90250","REFUGEE":null,"STATE":"CA","ADDRESSLIN":null,"CAPI":null,"GROW":null,"CITY":"Hawthorne","NAME":"IHSS Ops IV Hawthorne","IHSS":"B","TELEPHONE":"(310) 349-4769","ORGID":707}},{"geometry":{"type":"Point","coordinates":[-117.74989250602547,34.08914924461206]},"type":"Feature","properties":{"CALFRESH":null,"DIST":null,"Y_COORD":1854919.51645778,"MEDICAL":null,"X_COORD":6637393.77598768,"HELPLINE2":null,"STREET":"2255 N. Garey Ave.","LINK":"http://dpss.lacounty.gov/dpss/offices/default.cfm?orgid=824","GAIN":"B","HELPLINE":"(877) 292-4246","CALWORKS":null,"GENERALREL":null,"ZIP":"91767","REFUGEE":null,"STATE":"CA","ADDRESSLIN":null,"CAPI":null,"GROW":null,"CITY":"Pomona","NAME":"GAIN Region III Pomona, sub","IHSS":null,"TELEPHONE":"(909) 392-3000","ORGID":824}},{"geometry":{"type":"Point","coordinates":[-118.29173684486412,34.01582914604253]},"type":"Feature","properties":{"CALFRESH":null,"DIST":null,"Y_COORD":1828270.98737296,"MEDICAL":null,"X_COORD":6473257.68550542,"HELPLINE2":null,"STREET":"3833 S. Vermont Ave.","LINK":"http://dpss.lacounty.gov/dpss/offices/default.cfm?orgid=832","GAIN":"B","HELPLINE":null,"CALWORKS":null,"GENERALREL":null,"ZIP":"90037","REFUGEE":null,"STATE":"CA","ADDRESSLIN":null,"CAPI":null,"GROW":null,"CITY":"Los Angeles","NAME":"GAIN Region IV Beverly, Sub","IHSS":null,"TELEPHONE":null,"ORGID":832}},{"geometry":{"type":"Point","coordinates":[-118.29299390123406,33.76063872627459]},"type":"Feature","properties":{"CALFRESH":null,"DIST":null,"Y_COORD":1735402.53699552,"MEDICAL":null,"X_COORD":6472606.03986556,"HELPLINE2":null,"STREET":"1851 N. Gaffey St.","LINK":"http://dpss.lacounty.gov/dpss/offices/default.cfm?orgid=836","GAIN":"B","HELPLINE":"(877) 292-4246","CALWORKS":null,"GENERALREL":null,"ZIP":"90731","REFUGEE":null,"STATE":"CA","ADDRESSLIN":null,"CAPI":null,"GROW":null,"CITY":"San Pedro","NAME":"GAIN Region V Harbor One Stop, Sub","IHSS":null,"TELEPHONE":"(310) 519-6278","ORGID":836}},{"geometry":{"type":"Point","coordinates":[-118.15314041489232,34.01972090381453]},"type":"Feature","properties":{"CALFRESH":null,"DIST":null,"Y_COORD":1829594.32919819,"MEDICAL":null,"X_COORD":6515260.55581654,"HELPLINE2":"(877) 292-4246","STREET":"5445 Whittier Blvd.","LINK":"http://dpss.lacounty.gov/dpss/offices/default.cfm?orgid=839","GAIN":"B","HELPLINE":"(877) 292-4246","CALWORKS":null,"GENERALREL":null,"ZIP":"90022","REFUGEE":null,"STATE":"CA","ADDRESSLIN":null,"CAPI":null,"GROW":null,"CITY":"Los Angeles","NAME":"GAIN Region VI Belvedere","IHSS":null,"TELEPHONE":"(323) 260-3050","ORGID":839}},{"geometry":{"type":"Point","coordinates":[-118.37008218738073,33.945255914984166]},"type":"Feature","properties":{"CALFRESH":null,"DIST":"I","Y_COORD":1802666.23803712,"MEDICAL":null,"X_COORD":6449421.16810722,"HELPLINE2":"(877) 292-4246","STREET":"5200 W. Century Blvd.","LINK":"http://dpss.lacounty.gov/dpss/offices/default.cfm?orgid=861","GAIN":"B","HELPLINE":"(310) 665-7502","CALWORKS":null,"GENERALREL":null,"ZIP":"90045","REFUGEE":null,"STATE":"CA","ADDRESSLIN":null,"CAPI":null,"GROW":null,"CITY":"Los Angeles","NAME":"GAIN Region I West County Main","IHSS":null,"TELEPHONE":"(310) 665-7500","ORGID":861}},{"geometry":{"type":"Point","coordinates":[-118.06849341401029,34.06624189831139]},"type":"Feature","properties":{"CALFRESH":null,"DIST":"III","Y_COORD":1846495.95097394,"MEDICAL":null,"X_COORD":6540922.65017644,"HELPLINE2":null,"STREET":"3216 Rosemead Blvd.","LINK":"http://dpss.lacounty.gov/dpss/offices/default.cfm?orgid=862","GAIN":"B","HELPLINE":"(877) 292-4246","CALWORKS":null,"GENERALREL":null,"ZIP":"91731","REFUGEE":null,"STATE":"CA","ADDRESSLIN":null,"CAPI":null,"GROW":null,"CITY":"El Monte","NAME":"GAIN Region III San Gabriel Valley Main","IHSS":null,"TELEPHONE":"(626) 927-2700","ORGID":862}},{"geometry":{"type":"Point","coordinates":[-118.29173684486412,34.01582914604253]},"type":"Feature","properties":{"CALFRESH":null,"DIST":"IV","Y_COORD":1828270.98737296,"MEDICAL":null,"X_COORD":6473257.68550542,"HELPLINE2":null,"STREET":"3833 S. Vermont Ave.","LINK":"http://dpss.lacounty.gov/dpss/offices/default.cfm?orgid=863","GAIN":"B","HELPLINE":"(877) 292-4246","CALWORKS":null,"GENERALREL":null,"ZIP":"90037","REFUGEE":null,"STATE":"CA","ADDRESSLIN":null,"CAPI":null,"GROW":null,"CITY":"Los Angeles","NAME":"GAIN Region IV Central County Main","IHSS":null,"TELEPHONE":"(323) 730-6301","ORGID":863}},{"geometry":{"type":"Point","coordinates":[-118.20953378591507,33.865046418363775]},"type":"Feature","properties":{"CALFRESH":null,"DIST":"V","Y_COORD":1773335.8042469,"MEDICAL":null,"X_COORD":6498054.36604709,"HELPLINE2":null,"STREET":"2959 E. Victoria St.","LINK":"http://dpss.lacounty.gov/dpss/offices/default.cfm?orgid=864","GAIN":"B","HELPLINE":"(877) 292-4246","CALWORKS":null,"GENERALREL":null,"ZIP":"90221","REFUGEE":null,"STATE":"CA","ADDRESSLIN":null,"CAPI":null,"GROW":null,"CITY":"Rancho Dominguez","NAME":"GAIN Region V South County Main","IHSS":null,"TELEPHONE":"(310) 603-8000","ORGID":864}},{"geometry":{"type":"Point","coordinates":[-118.16910563617185,33.99617381755608]},"type":"Feature","properties":{"CALFRESH":null,"DIST":"VI","Y_COORD":1821032.83210222,"MEDICAL":null,"X_COORD":6510408.20586002,"HELPLINE2":null,"STREET":"5460 Bandini Blvd.","LINK":"http://dpss.lacounty.gov/dpss/offices/default.cfm?orgid=865","GAIN":"B","HELPLINE":"(877) 292-4246","CALWORKS":null,"GENERALREL":null,"ZIP":"90201","REFUGEE":null,"STATE":"CA","ADDRESSLIN":null,"CAPI":null,"GROW":null,"CITY":"Bell","NAME":"GAIN Region VI Southeast County Main","IHSS":null,"TELEPHONE":"(323) 881-5312","ORGID":865}},{"geometry":{"type":"Point","coordinates":[-118.44990454331557,34.218091442267294]},"type":"Feature","properties":{"CALFRESH":"B","DIST":"11","Y_COORD":1902054.12374495,"MEDICAL":"B","X_COORD":6425655.6996037,"HELPLINE2":"(626) 569-1399","STREET":"14545 Lanark St.","LINK":"http://dpss.lacounty.gov/dpss/offices/default.cfm?orgid=1022","GAIN":null,"HELPLINE":"(818) 701-8200","CALWORKS":"B","GENERALREL":null,"ZIP":"91402","REFUGEE":null,"STATE":"CA","ADDRESSLIN":null,"CAPI":null,"GROW":null,"CITY":"Panorama City","NAME":"East Valley","IHSS":null,"TELEPHONE":"(866) 613-3777","ORGID":1022}},{"geometry":{"type":"Point","coordinates":[-118.06849341401029,34.06624189831139]},"type":"Feature","properties":{"CALFRESH":null,"DIST":null,"Y_COORD":1846495.95097394,"MEDICAL":null,"X_COORD":6540922.65017644,"HELPLINE2":null,"STREET":"3216 Rosemead Blvd.","LINK":"http://dpss.lacounty.gov/dpss/offices/default.cfm?orgid=1023","GAIN":"B","HELPLINE":"(877) 292-4246","CALWORKS":null,"GENERALREL":null,"ZIP":"91731","REFUGEE":null,"STATE":"CA","ADDRESSLIN":null,"CAPI":null,"GROW":null,"CITY":"El Monte","NAME":"GAIN Region III Santa Anita, Sub","IHSS":null,"TELEPHONE":"(626) 927-2600","ORGID":1023}},{"geometry":{"type":"Point","coordinates":[-118.06611679020166,34.06865515465076]},"type":"Feature","properties":{"CALFRESH":"I","DIST":"42","Y_COORD":1847373.69919875,"MEDICAL":"B","X_COORD":6541643.01574511,"HELPLINE2":null,"STREET":"9320 Telstar Ave","LINK":"http://dpss.lacounty.gov/dpss/offices/default.cfm?orgid=1031","GAIN":null,"HELPLINE":null,"CALWORKS":null,"GENERALREL":null,"ZIP":"91731","REFUGEE":null,"STATE":"CA","ADDRESSLIN":null,"CAPI":null,"GROW":null,"CITY":"El Monte","NAME":"Medi-Cal Outreach","IHSS":null,"TELEPHONE":"(626) 312-6001","ORGID":1031}},{"geometry":{"type":"Point","coordinates":[-118.59841454109883,34.242851299932305]},"type":"Feature","properties":{"CALFRESH":"B","DIST":"82","Y_COORD":1911298.64230249,"MEDICAL":"B","X_COORD":6380813.64270937,"HELPLINE2":"(626) 569-1399","STREET":"21415-21615 Plummer St.","LINK":"http://dpss.lacounty.gov/dpss/offices/default.cfm?orgid=1032","GAIN":null,"HELPLINE":"(818) 701-8200","CALWORKS":"B","GENERALREL":null,"ZIP":"91311","REFUGEE":"B","STATE":"CA","ADDRESSLIN":null,"CAPI":null,"GROW":null,"CITY":"Chatsworth","NAME":"West Valley","IHSS":null,"TELEPHONE":"(866) 613-3777","ORGID":1032}},{"geometry":{"type":"Point","coordinates":[-118.12526547262833,34.66651017545802]},"type":"Feature","properties":{"CALFRESH":"B","DIST":"67","Y_COORD":2064962.64598363,"MEDICAL":"B","X_COORD":6524000.82372239,"HELPLINE2":"(310) 258-7400","STREET":"337 East Ave K-10","LINK":"http://dpss.lacounty.gov/dpss/offices/default.cfm?orgid=1321","GAIN":null,"HELPLINE":"(626) 569-1399","CALWORKS":null,"GENERALREL":"B","ZIP":"93535","REFUGEE":null,"STATE":"CA","ADDRESSLIN":null,"CAPI":null,"GROW":"B","CITY":"Lancaster","NAME":"Lancaster General Relief Sub Office","IHSS":null,"TELEPHONE":"(866) 613-3777","ORGID":1321}},{"geometry":{"type":"Point","coordinates":[-118.59841454109883,34.242851299932305]},"type":"Feature","properties":{"CALFRESH":null,"DIST":"II","Y_COORD":1911298.64230249,"MEDICAL":null,"X_COORD":6380813.64270937,"HELPLINE2":null,"STREET":"21415-21615 Plummer St.","LINK":"http://dpss.lacounty.gov/dpss/offices/default.cfm?orgid=15000","GAIN":"B","HELPLINE":"(877) 292-4246","CALWORKS":null,"GENERALREL":null,"ZIP":"91311","REFUGEE":null,"STATE":"CA","ADDRESSLIN":null,"CAPI":null,"GROW":null,"CITY":"Chatsworth","NAME":"GAIN Region II - West San Fernando Valley","IHSS":null,"TELEPHONE":"(818) 718-4201","ORGID":15000}},{"geometry":{"type":"Point","coordinates":[-118.34130749593936,34.20640680147798]},"type":"Feature","properties":{"CALFRESH":null,"DIST":"VII","Y_COORD":1897672.6857416,"MEDICAL":null,"X_COORD":6458471.16645165,"HELPLINE2":null,"STREET":"3307 N. Glenoaks Blvd.","LINK":"http://dpss.lacounty.gov/dpss/offices/default.cfm?orgid=15001","GAIN":"B","HELPLINE":"(877) 292-4246","CALWORKS":null,"GENERALREL":null,"ZIP":"91504","REFUGEE":null,"STATE":"CA","ADDRESSLIN":null,"CAPI":null,"GROW":null,"CITY":"Burbank","NAME":"GAIN Region VII - East San Fernando Valley","IHSS":null,"TELEPHONE":"(818) 729-8803","ORGID":15001}}]}