{"crs":{"type":"name","properties":{"name":"urn:ogc:def:crs:OGC:1.3:CRS84"}},"type":"FeatureCollection","name":"Hospitals","features":[{"geometry":{"type":"Point","coordinates":[-118.144947,34.09001799999962]},"type":"Feature","properties":{"EMS_LEVEL":"Emergency - Basic","BED_AVL":144,"TYPE_CNTRL":"Investor","NON_PROFIT":"N","SPA2011":"3","HOSPITAL":null,"BED_LIC":144,"BED_STF":144,"DSH_HOSP":"Non-DSH","ZIP_CODE":"91801","LEVEL":null,"CLUSTERNAM":"Northeast","MAPID":"1","A911RH":"YES","LICENSE_CA":"General Acute Care Hospital","NAME2011":"Alhambra","LONGITUDE":-118.144947,"OSHPD_ID":"106190017","SUPD2011":"5","ER":"Y","CITY":"ALHAMBRA","NAME":"ALHAMBRA HOSPITAL","GEORESULT":"S5HPNTSCZA","MISSING_BE":null,"ADDRESS":"100 SOUTH RAYMOND AVENUE","LATITUDE":34.090018}},{"geometry":{"type":"Point","coordinates":[-117.790913,34.06125399999962]},"type":"Feature","properties":{"EMS_LEVEL":null,"BED_AVL":156,"TYPE_CNTRL":"Non-Profit","NON_PROFIT":"Y","SPA2011":"3","HOSPITAL":null,"BED_LIC":156,"BED_STF":156,"DSH_HOSP":"Non-DSH","ZIP_CODE":"91768","LEVEL":null,"CLUSTERNAM":"Northeast","MAPID":"2","A911RH":null,"LICENSE_CA":"Chemical Dep. Recovery Hospital","NAME2011":"Pomona","LONGITUDE":-117.790913,"OSHPD_ID":"106194010","SUPD2011":"1","ER":null,"CITY":"POMONA","NAME":"AMERICAN RECOVERY CENTER","GEORESULT":"S5H-NTSCZA","MISSING_BE":null,"ADDRESS":"2180 WEST VALLEY BOULEVARD","LATITUDE":34.061254}},{"geometry":{"type":"Point","coordinates":[-118.159719,34.68931999999963]},"type":"Feature","properties":{"EMS_LEVEL":"Emergency - Basic","BED_AVL":393,"TYPE_CNTRL":"District","NON_PROFIT":"Y","SPA2011":"1","HOSPITAL":"Y","BED_LIC":420,"BED_STF":393,"DSH_HOSP":"DSH","ZIP_CODE":"93534","LEVEL":"2","CLUSTERNAM":"Antelope Valley","MAPID":"3","A911RH":"YES","LICENSE_CA":"General Acute Care Hospital","NAME2011":"Antelope Valley","LONGITUDE":-118.159719,"OSHPD_ID":"106190034","SUPD2011":"5","ER":"Y","CITY":"LANCASTER","NAME":"ANTELOPE VALLEY HOSPITAL","GEORESULT":"S5HPNTSCZA","MISSING_BE":null,"ADDRESS":"1600 WEST AVENUE J","LATITUDE":34.68932}},{"geometry":{"type":"Point","coordinates":[-117.866244,34.09947899999962]},"type":"Feature","properties":{"EMS_LEVEL":null,"BED_AVL":95,"TYPE_CNTRL":"Investor","NON_PROFIT":"N","SPA2011":"3","HOSPITAL":null,"BED_LIC":95,"BED_STF":95,"DSH_HOSP":"Non-DSH","ZIP_CODE":"91724","LEVEL":null,"CLUSTERNAM":"Northeast","MAPID":"4","A911RH":null,"LICENSE_CA":"Acute Psychiatric Hospital","NAME2011":"Pomona","LONGITUDE":-117.866244,"OSHPD_ID":"106190163","SUPD2011":"5","ER":null,"CITY":"COVINA","NAME":"AURORA CHARTER OAK","GEORESULT":"S5HPNTSCZA","MISSING_BE":null,"ADDRESS":"1161 EAST COVINA BOULEVARD","LATITUDE":34.099479}},{"geometry":{"type":"Point","coordinates":[-118.090847,34.14211599999961]},"type":"Feature","properties":{"EMS_LEVEL":null,"BED_AVL":138,"TYPE_CNTRL":"Investor","NON_PROFIT":"N","SPA2011":"3","HOSPITAL":null,"BED_LIC":138,"BED_STF":138,"DSH_HOSP":"Non-DSH","ZIP_CODE":"91107","LEVEL":null,"CLUSTERNAM":"Northeast","MAPID":"5","A911RH":null,"LICENSE_CA":"Acute Psychiatric Hospital","NAME2011":"Pasadena","LONGITUDE":-118.090847,"OSHPD_ID":"106190462","SUPD2011":"5","ER":null,"CITY":"PASADENA","NAME":"AURORA LAS ENCINAS HOSPITAL, LLC","GEORESULT":"S5HPNTSCZA","MISSING_BE":null,"ADDRESS":"2900 EAST DEL MAR BOULEVARD","LATITUDE":34.142116}},{"geometry":{"type":"Point","coordinates":[-118.248675,34.07640699999964]},"type":"Feature","properties":{"EMS_LEVEL":null,"BED_AVL":105,"TYPE_CNTRL":"Non-Profit","NON_PROFIT":"Y","SPA2011":"4","HOSPITAL":null,"BED_LIC":105,"BED_STF":105,"DSH_HOSP":"Non-DSH","ZIP_CODE":"90026","LEVEL":null,"CLUSTERNAM":"Northeast","MAPID":"6","A911RH":null,"LICENSE_CA":"General Acute Care Hospital","NAME2011":"Central","LONGITUDE":-118.248675,"OSHPD_ID":"106190052","SUPD2011":"1","ER":null,"CITY":"LOS ANGELES","NAME":"BARLOW RESPIRATORY HOSPITAL","GEORESULT":"S5HPNTSCZA","MISSING_BE":null,"ADDRESS":"2000 STADIUM WAY","LATITUDE":34.076407}},{"geometry":{"type":"Point","coordinates":[-118.130503,33.87469999999963]},"type":"Feature","properties":{"EMS_LEVEL":"Emergency - Basic","BED_AVL":133,"TYPE_CNTRL":"Investor","NON_PROFIT":"N","SPA2011":"7","HOSPITAL":null,"BED_LIC":144,"BED_STF":133,"DSH_HOSP":"DSH","ZIP_CODE":"90706","LEVEL":null,"CLUSTERNAM":"Coastal","MAPID":"7","A911RH":"YES","LICENSE_CA":"General Acute Care Hospital","NAME2011":"Bellflower","LONGITUDE":-118.130503,"OSHPD_ID":"106190066","SUPD2011":"4","ER":"Y","CITY":"BELLFLOWER","NAME":"BELLFLOWER MEDICAL CENTER","GEORESULT":"S5H-NTSCZA","MISSING_BE":null,"ADDRESS":"9542 EAST ARTESIA BOULEVARD","LATITUDE":33.8747}},{"geometry":{"type":"Point","coordinates":[-118.100417,34.0159539999996]},"type":"Feature","properties":{"EMS_LEVEL":"Emergency - Basic","BED_AVL":214,"TYPE_CNTRL":"Non-Profit","NON_PROFIT":"Y","SPA2011":"7","HOSPITAL":null,"BED_LIC":214,"BED_STF":189,"DSH_HOSP":"DSH","ZIP_CODE":"90640","LEVEL":null,"CLUSTERNAM":"Northeast","MAPID":"8","A911RH":"YES","LICENSE_CA":"General Acute Care Hospital","NAME2011":"East LA","LONGITUDE":-118.100417,"OSHPD_ID":"106190081","SUPD2011":"1","ER":"Y","CITY":"MONTEBELLO","NAME":"BEVERLY HOSPITAL","GEORESULT":"S5HPNTSCZA","MISSING_BE":null,"ADDRESS":"309 WEST BEVERLY BOULEVARD","LATITUDE":34.015954}},{"geometry":{"type":"Point","coordinates":[-118.073615,34.08887199999963]},"type":"Feature","properties":{"EMS_LEVEL":null,"BED_AVL":97,"TYPE_CNTRL":"Investor","NON_PROFIT":"N","SPA2011":"3","HOSPITAL":null,"BED_LIC":97,"BED_STF":97,"DSH_HOSP":"Non-DSH","ZIP_CODE":"91770","LEVEL":null,"CLUSTERNAM":"Northeast","MAPID":"9","A911RH":null,"LICENSE_CA":"Acute Psychiatric Hospital","NAME2011":"Alhambra","LONGITUDE":-118.073615,"OSHPD_ID":"106190020","SUPD2011":"1","ER":null,"CITY":"ROSEMEAD","NAME":"BHC ALHAMBRA HOSPITAL","GEORESULT":"S5HPNTSCZA","MISSING_BE":null,"ADDRESS":"4619 ROSEMEAD BOULEVARD","LATITUDE":34.088872}},{"geometry":{"type":"Point","coordinates":[-118.397355,34.02337099999961]},"type":"Feature","properties":{"EMS_LEVEL":"Emergency - Basic","BED_AVL":188,"TYPE_CNTRL":"Investor","NON_PROFIT":"N","SPA2011":"5","HOSPITAL":null,"BED_LIC":406,"BED_STF":188,"DSH_HOSP":"Non-DSH","ZIP_CODE":"90231","LEVEL":null,"CLUSTERNAM":"Northeast","MAPID":"10","A911RH":"YES","LICENSE_CA":"General Acute Care Hospital","NAME2011":"West","LONGITUDE":-118.397355,"OSHPD_ID":"106190110","SUPD2011":"2","ER":"Y","CITY":"CULVER CITY","NAME":"BROTMAN MEDICAL CENTER","GEORESULT":"S5HPNTSC-A","MISSING_BE":null,"ADDRESS":"3828 DELMAS TERRACE","LATITUDE":34.023371}},{"geometry":{"type":"Point","coordinates":[-118.265469,34.037160999999614]},"type":"Feature","properties":{"EMS_LEVEL":"Emergency - Basic","BED_AVL":316,"TYPE_CNTRL":"Non-Profit","NON_PROFIT":"Y","SPA2011":"4","HOSPITAL":"Y","BED_LIC":316,"BED_STF":190,"DSH_HOSP":"DSH","ZIP_CODE":"90015","LEVEL":"2","CLUSTERNAM":"Northeast","MAPID":"11","A911RH":"YES","LICENSE_CA":"General Acute Care Hospital","NAME2011":"Central","LONGITUDE":-118.265469,"OSHPD_ID":"106190125","SUPD2011":"1","ER":"Y","CITY":"LOS ANGELES","NAME":"CALIFORNIA HOSPITAL MEDICAL CENTER - LOS ANGELES","GEORESULT":"S5HPNTSCZA","MISSING_BE":null,"ADDRESS":"1401 SOUTH GRAND AVENUE","LATITUDE":34.037161}},{"geometry":{"type":"Point","coordinates":[-117.745665,34.09629299999961]},"type":"Feature","properties":{"EMS_LEVEL":null,"BED_AVL":68,"TYPE_CNTRL":"Non-Profit","NON_PROFIT":"Y","SPA2011":"3","HOSPITAL":null,"BED_LIC":68,"BED_STF":60,"DSH_HOSP":"Non-DSH","ZIP_CODE":"91767","LEVEL":null,"CLUSTERNAM":"Northeast","MAPID":"12","A911RH":null,"LICENSE_CA":"General Acute Care Hospital","NAME2011":"Pomona","LONGITUDE":-117.745665,"OSHPD_ID":"106190137","SUPD2011":"1","ER":null,"CITY":"POMONA","NAME":"CASA COLINA HOSPITAL FOR REHAB MEDICINE","GEORESULT":"S5HPNTSCZA","MISSING_BE":null,"ADDRESS":"255 EAST BONITA AVENUE","LATITUDE":34.096293}},{"geometry":{"type":"Point","coordinates":[-118.329974,33.339232999999574]},"type":"Feature","properties":{"EMS_LEVEL":"Emergency - Standby","BED_AVL":12,"TYPE_CNTRL":"Non-Profit","NON_PROFIT":"Y","SPA2011":"8","HOSPITAL":null,"BED_LIC":12,"BED_STF":12,"DSH_HOSP":"Non-DSH","ZIP_CODE":"90704","LEVEL":null,"CLUSTERNAM":"Coastal","MAPID":"13","A911RH":"YES","LICENSE_CA":"General Acute Care Hospital","NAME2011":"Harbor","LONGITUDE":-118.329974,"OSHPD_ID":"106190045","SUPD2011":"4","ER":"Y","CITY":"AVALON","NAME":"CATALINA ISLAND MEDICAL CENTER","GEORESULT":"S5HPNTSCZA","MISSING_BE":null,"ADDRESS":"100 FALLS CANYON ROAD","LATITUDE":33.339233}},{"geometry":{"type":"Point","coordinates":[-118.380227,34.07675399999962]},"type":"Feature","properties":{"EMS_LEVEL":"Emergency - Basic","BED_AVL":931,"TYPE_CNTRL":"Non-Profit","NON_PROFIT":"Y","SPA2011":"4","HOSPITAL":"Y","BED_LIC":958,"BED_STF":931,"DSH_HOSP":"Non-DSH","ZIP_CODE":"90048","LEVEL":"1","CLUSTERNAM":"Northeast","MAPID":"14","A911RH":"YES","LICENSE_CA":"General Acute Care Hospital","NAME2011":"Hollywood-Wilshire","LONGITUDE":-118.380227,"OSHPD_ID":"106190555","SUPD2011":"3","ER":"Y","CITY":"LOS ANGELES","NAME":"CEDARS SINAI MEDICAL CENTER","GEORESULT":"S5HPNTS-ZA","MISSING_BE":null,"ADDRESS":"8700 BEVERLY BOULEVARD","LATITUDE":34.076754}},{"geometry":{"type":"Point","coordinates":[-118.347867,33.94913999999962]},"type":"Feature","properties":{"EMS_LEVEL":"Emergency - Basic","BED_AVL":369,"TYPE_CNTRL":"Investor","NON_PROFIT":"N","SPA2011":"8","HOSPITAL":null,"BED_LIC":369,"BED_STF":192,"DSH_HOSP":"DSH","ZIP_CODE":"90301","LEVEL":null,"CLUSTERNAM":"Southwest","MAPID":"15","A911RH":"YES","LICENSE_CA":"General Acute Care Hospital","NAME2011":"Inglewood","LONGITUDE":-118.347867,"OSHPD_ID":"106190148","SUPD2011":"2","ER":"Y","CITY":"INGLEWOOD","NAME":"CENTINELA HOSPITAL MEDICAL CENTER","GEORESULT":"S5HPNTSCZA","MISSING_BE":null,"ADDRESS":"555 EAST HARDY STREET","LATITUDE":33.94914}},{"geometry":{"type":"Point","coordinates":[-118.290684,34.09809199999961]},"type":"Feature","properties":{"EMS_LEVEL":"Emergency - Basic","BED_AVL":286,"TYPE_CNTRL":"Non-Profit","NON_PROFIT":"Y","SPA2011":"4","HOSPITAL":"Y","BED_LIC":286,"BED_STF":286,"DSH_HOSP":"DSH","ZIP_CODE":"90027","LEVEL":"1","CLUSTERNAM":"Northeast","MAPID":"16","A911RH":"YES","LICENSE_CA":"General Acute Care Hospital","NAME2011":"Central","LONGITUDE":-118.290684,"OSHPD_ID":"106190170","SUPD2011":"3","ER":"Y","CITY":"LOS ANGELES","NAME":"CHILDREN'S HOSPITAL OF LOS ANGELES","GEORESULT":"S5H-NTSCZA","MISSING_BE":null,"ADDRESS":"4650 SUNSET BOULEVARD","LATITUDE":34.098092}},{"geometry":{"type":"Point","coordinates":[-117.892573,34.08998499999962]},"type":"Feature","properties":{"EMS_LEVEL":"Emergency - Basic","BED_AVL":0,"TYPE_CNTRL":"Non-Profit","NON_PROFIT":"Y","SPA2011":"3","HOSPITAL":null,"BED_LIC":0,"BED_STF":0,"DSH_HOSP":null,"ZIP_CODE":"91723","LEVEL":null,"CLUSTERNAM":"Northeast","MAPID":"17","A911RH":"YES","LICENSE_CA":"General Acute Care Hospital","NAME2011":"Pomona","LONGITUDE":-117.892573,"OSHPD_ID":"106190413","SUPD2011":"5","ER":"Y","CITY":"COVINA","NAME":"CITRUS VALLEY MEDICAL CENTER - IC CAMPUS","GEORESULT":"S5HPNTSCZA","MISSING_BE":"Part of 190636","ADDRESS":"210 W. SAN BERNARDINO ROAD","LATITUDE":34.089985}},{"geometry":{"type":"Point","coordinates":[-117.945272,34.062357999999634]},"type":"Feature","properties":{"EMS_LEVEL":"Emergency - Basic","BED_AVL":518,"TYPE_CNTRL":"Non-Profit","NON_PROFIT":"Y","SPA2011":"3","HOSPITAL":null,"BED_LIC":518,"BED_STF":382,"DSH_HOSP":"DSH","ZIP_CODE":"91790","LEVEL":null,"CLUSTERNAM":"Northeast","MAPID":"18","A911RH":"YES","LICENSE_CA":"General Acute Care Hospital","NAME2011":"Pomona","LONGITUDE":-117.945272,"OSHPD_ID":"106190636","SUPD2011":"1","ER":"Y","CITY":"WEST COVINA","NAME":"CITRUS VALLEY MEDICAL CENTER - QV CAMPUS","GEORESULT":"S5HPNTSCZA","MISSING_BE":null,"ADDRESS":"1115 SOUTH SUNSET AVENUE","LATITUDE":34.062358}},{"geometry":{"type":"Point","coordinates":[-117.9717,34.132168999999614]},"type":"Feature","properties":{"EMS_LEVEL":null,"BED_AVL":185,"TYPE_CNTRL":"Non-Profit","NON_PROFIT":"Y","SPA2011":"3","HOSPITAL":null,"BED_LIC":217,"BED_STF":185,"DSH_HOSP":"Non-DSH","ZIP_CODE":"91010","LEVEL":null,"CLUSTERNAM":"Northeast","MAPID":"19","A911RH":null,"LICENSE_CA":"General Acute Care Hospital","NAME2011":"Foothill","LONGITUDE":-117.9717,"OSHPD_ID":"106190176","SUPD2011":"5","ER":null,"CITY":"DUARTE","NAME":"CITY OF HOPE HELFORD CLINICAL RESEARCH HOSPITAL","GEORESULT":"S5H-NTSCZA","MISSING_BE":null,"ADDRESS":"1500 EAST DUARTE ROAD","LATITUDE":34.132169}},{"geometry":{"type":"Point","coordinates":[-118.099088,33.91250799999962]},"type":"Feature","properties":{"EMS_LEVEL":"Emergency - Basic","BED_AVL":117,"TYPE_CNTRL":"Investor","NON_PROFIT":"N","SPA2011":"7","HOSPITAL":null,"BED_LIC":117,"BED_STF":105,"DSH_HOSP":"Non-DSH","ZIP_CODE":"90650","LEVEL":null,"CLUSTERNAM":"Coastal","MAPID":"20","A911RH":"YES","LICENSE_CA":"General Acute Care Hospital","NAME2011":"Bellflower","LONGITUDE":-118.099088,"OSHPD_ID":"106190766","SUPD2011":"4","ER":"Y","CITY":"NORWALK","NAME":"COAST PLAZA DOCTORS HOSPITAL","GEORESULT":"S5H-NTSCZA","MISSING_BE":null,"ADDRESS":"13100 SOUTH STUDEBAKER ROAD","LATITUDE":33.912508}},{"geometry":{"type":"Point","coordinates":[-118.102851,33.88493499999961]},"type":"Feature","properties":{"EMS_LEVEL":null,"BED_AVL":157,"TYPE_CNTRL":"Investor","NON_PROFIT":"N","SPA2011":"7","HOSPITAL":null,"BED_LIC":157,"BED_STF":157,"DSH_HOSP":"Non-DSH","ZIP_CODE":"90701","LEVEL":null,"CLUSTERNAM":"Coastal","MAPID":"21","A911RH":null,"LICENSE_CA":"Acute Psychiatric Hospital","NAME2011":"Bellflower","LONGITUDE":-118.102851,"OSHPD_ID":"106190184","SUPD2011":"4","ER":null,"CITY":"CERRITOS","NAME":"COLLEGE HOSPITAL","GEORESULT":"S5HPNTSC-A","MISSING_BE":null,"ADDRESS":"10802 COLLEGE PLACE","LATITUDE":33.884935}},{"geometry":{"type":"Point","coordinates":[-118.224281,33.989222999999626]},"type":"Feature","properties":{"EMS_LEVEL":"Emergency - Standby","BED_AVL":113,"TYPE_CNTRL":"Investor","NON_PROFIT":"N","SPA2011":"7","HOSPITAL":null,"BED_LIC":113,"BED_STF":113,"DSH_HOSP":"DSH","ZIP_CODE":"90255","LEVEL":null,"CLUSTERNAM":"Southwest","MAPID":"22","A911RH":null,"LICENSE_CA":"General Acute Care Hospital","NAME2011":"San Antonio","LONGITUDE":-118.224281,"OSHPD_ID":"106190197","SUPD2011":"1","ER":"Y","CITY":"HUNTINGTON PARK","NAME":"COMMUNITY HOSPITAL OF HUNTINGTON PARK","GEORESULT":"S5HPNTSCZA","MISSING_BE":null,"ADDRESS":"2623 EAST SLAUSON AVENUE","LATITUDE":33.989223}},{"geometry":{"type":"Point","coordinates":[-118.145823,33.7885609999996]},"type":"Feature","properties":{"EMS_LEVEL":"Emergency - Basic","BED_AVL":141,"TYPE_CNTRL":"Non-Profit","NON_PROFIT":"Y","SPA2011":"8","HOSPITAL":null,"BED_LIC":208,"BED_STF":79,"DSH_HOSP":"Non-DSH","ZIP_CODE":"90804","LEVEL":null,"CLUSTERNAM":"Coastal","MAPID":"23","A911RH":"YES","LICENSE_CA":"General Acute Care Hospital","NAME2011":"Long Beach","LONGITUDE":-118.145823,"OSHPD_ID":"106190475","SUPD2011":"4","ER":"Y","CITY":"LONG BEACH","NAME":"COMMUNITY HOSPITAL OF LONG BEACH","GEORESULT":"S5HPNTSCZA","MISSING_BE":null,"ADDRESS":"1720 TERMINO AVENUE","LATITUDE":33.788561}},{"geometry":{"type":"Point","coordinates":[-118.344868,33.810279999999594]},"type":"Feature","properties":{"EMS_LEVEL":null,"BED_AVL":166,"TYPE_CNTRL":"Investor","NON_PROFIT":"N","SPA2011":"8","HOSPITAL":null,"BED_LIC":166,"BED_STF":109,"DSH_HOSP":"Non-DSH","ZIP_CODE":"90505","LEVEL":null,"CLUSTERNAM":"Coastal","MAPID":"24","A911RH":null,"LICENSE_CA":"Acute Psychiatric Hospital","NAME2011":"Torrance","LONGITUDE":-118.344868,"OSHPD_ID":"106190232","SUPD2011":"4","ER":null,"CITY":"TORRANCE","NAME":"DEL AMO HOSPITAL","GEORESULT":"S5HPNTSCZA","MISSING_BE":null,"ADDRESS":"23700 CAMINO DEL SOL","LATITUDE":33.81028}},{"geometry":{"type":"Point","coordinates":[-117.945031,34.07040199999964]},"type":"Feature","properties":{"EMS_LEVEL":null,"BED_AVL":51,"TYPE_CNTRL":"Investor","NON_PROFIT":"N","SPA2011":"3","HOSPITAL":null,"BED_LIC":51,"BED_STF":25,"DSH_HOSP":"DSH","ZIP_CODE":"91790","LEVEL":null,"CLUSTERNAM":"Northeast","MAPID":"25","A911RH":null,"LICENSE_CA":"General Acute Care Hospital","NAME2011":"Pomona","LONGITUDE":-117.945031,"OSHPD_ID":"106190857","SUPD2011":"1","ER":null,"CITY":"WEST COVINA","NAME":"DOCTORS HOSPITAL OF WEST COVINA, INC","GEORESULT":"S5HPNTSCZA","MISSING_BE":null,"ADDRESS":"725 SOUTH ORANGE AVENUE","LATITUDE":34.070402}},{"geometry":{"type":"Point","coordinates":[-118.131871,33.935257999999614]},"type":"Feature","properties":{"EMS_LEVEL":"Emergency - Basic","BED_AVL":181,"TYPE_CNTRL":"Non-Profit","NON_PROFIT":"Y","SPA2011":"7","HOSPITAL":null,"BED_LIC":181,"BED_STF":181,"DSH_HOSP":"Non-DSH","ZIP_CODE":"90241","LEVEL":null,"CLUSTERNAM":"Southwest","MAPID":"26","A911RH":"YES","LICENSE_CA":"General Acute Care Hospital","NAME2011":"San Antonio","LONGITUDE":-118.131871,"OSHPD_ID":"106190243","SUPD2011":"4","ER":"Y","CITY":"DOWNEY","NAME":"DOWNEY REGIONAL MEDICAL CENTER","GEORESULT":"S5HPNTSCZA","MISSING_BE":null,"ADDRESS":"11500 BROOKSHIRE AVENUE","LATITUDE":33.935258}},{"geometry":{"type":"Point","coordinates":[-118.185156,33.80807899999962]},"type":"Feature","properties":{"EMS_LEVEL":null,"BED_AVL":317,"TYPE_CNTRL":"Non-Profit","NON_PROFIT":"Y","SPA2011":"8","HOSPITAL":"Y","BED_LIC":324,"BED_STF":242,"DSH_HOSP":"DSH","ZIP_CODE":"90806","LEVEL":"2","CLUSTERNAM":"Coastal","MAPID":"27","A911RH":null,"LICENSE_CA":"General Acute Care Hospital","NAME2011":"Long Beach","LONGITUDE":-118.185156,"OSHPD_ID":"106196168","SUPD2011":"4","ER":null,"CITY":"LONG BEACH","NAME":"EARL AND LORRAINE MILLER CHILDRENS HOSPITAL","GEORESULT":"S5HPNTSCZA","MISSING_BE":null,"ADDRESS":"2801 ATLANTIC AVENUE","LATITUDE":33.808079}},{"geometry":{"type":"Point","coordinates":[-118.183989,34.02387599999961]},"type":"Feature","properties":{"EMS_LEVEL":"Emergency - Basic","BED_AVL":127,"TYPE_CNTRL":"Investor","NON_PROFIT":"N","SPA2011":"7","HOSPITAL":null,"BED_LIC":127,"BED_STF":127,"DSH_HOSP":"DSH","ZIP_CODE":"90023","LEVEL":null,"CLUSTERNAM":"Northeast","MAPID":"28","A911RH":"YES","LICENSE_CA":"General Acute Care Hospital","NAME2011":"East LA","LONGITUDE":-118.183989,"OSHPD_ID":"106190256","SUPD2011":"1","ER":"Y","CITY":"LOS ANGELES","NAME":"EAST LOS ANGELES DOCTORS HOSPITAL","GEORESULT":"S5HPNTSCZA","MISSING_BE":null,"ADDRESS":"4060 WHITTIER BOULEVARD","LATITUDE":34.023876}},{"geometry":{"type":"Point","coordinates":[-117.865027,34.128628999999606]},"type":"Feature","properties":{"EMS_LEVEL":"Emergency - Basic","BED_AVL":118,"TYPE_CNTRL":"Investor","NON_PROFIT":"N","SPA2011":"3","HOSPITAL":null,"BED_LIC":118,"BED_STF":118,"DSH_HOSP":"DSH","ZIP_CODE":"91740","LEVEL":null,"CLUSTERNAM":"Northeast","MAPID":"29","A911RH":"YES","LICENSE_CA":"General Acute Care Hospital","NAME2011":"Foothill","LONGITUDE":-117.865027,"OSHPD_ID":"106190328","SUPD2011":"5","ER":"Y","CITY":"GLENDORA","NAME":"EAST VALLEY HOSPITAL MEDICAL CENTER","GEORESULT":"S5HPNTSCZA","MISSING_BE":null,"ADDRESS":"150 WEST ROUTE 66","LATITUDE":34.128629}},{"geometry":{"type":"Point","coordinates":[-118.486839,34.15686599999961]},"type":"Feature","properties":{"EMS_LEVEL":"Emergency - Basic","BED_AVL":125,"TYPE_CNTRL":"Non-Profit","NON_PROFIT":"Y","SPA2011":"2","HOSPITAL":null,"BED_LIC":125,"BED_STF":59,"DSH_HOSP":"Non-DSH","ZIP_CODE":"91436","LEVEL":null,"CLUSTERNAM":"San Fernando","MAPID":"30","A911RH":"YES","LICENSE_CA":"General Acute Care Hospital","NAME2011":"West Valley","LONGITUDE":-118.486839,"OSHPD_ID":"106190280","SUPD2011":"3","ER":"Y","CITY":"ENCINO","NAME":"ENCINO HOSPITAL MEDICAL CENTER","GEORESULT":"S5HPNTSCZA","MISSING_BE":null,"ADDRESS":"16237 VENTURA BOULEVARD","LATITUDE":34.156866}},{"geometry":{"type":"Point","coordinates":[-117.872466,34.133131999999605]},"type":"Feature","properties":{"EMS_LEVEL":"Emergency - Basic","BED_AVL":105,"TYPE_CNTRL":"Non-Profit","NON_PROFIT":"Y","SPA2011":"3","HOSPITAL":null,"BED_LIC":105,"BED_STF":73,"DSH_HOSP":"Non-DSH","ZIP_CODE":"91741","LEVEL":null,"CLUSTERNAM":"Northeast","MAPID":"31","A911RH":"YES","LICENSE_CA":"General Acute Care Hospital","NAME2011":"Foothill","LONGITUDE":-117.872466,"OSHPD_ID":"106190298","SUPD2011":"5","ER":"Y","CITY":"GLENDORA","NAME":"FOOTHILL PRESBYTERIAN HOSPITAL-JOHNSTON MEMORIAL","GEORESULT":"S5HPNTSCZA","MISSING_BE":null,"ADDRESS":"250 SOUTH GRAND AVENUE","LATITUDE":34.133132}},{"geometry":{"type":"Point","coordinates":[-118.122964,34.06761999999962]},"type":"Feature","properties":{"EMS_LEVEL":"Emergency - Basic","BED_AVL":210,"TYPE_CNTRL":"Investor","NON_PROFIT":"N","SPA2011":"3","HOSPITAL":null,"BED_LIC":210,"BED_STF":178,"DSH_HOSP":"DSH","ZIP_CODE":"91754","LEVEL":null,"CLUSTERNAM":"Northeast","MAPID":"32","A911RH":"YES","LICENSE_CA":"General Acute Care Hospital","NAME2011":"Alhambra","LONGITUDE":-118.122964,"OSHPD_ID":"106190315","SUPD2011":"1","ER":"Y","CITY":"MONTEREY PARK","NAME":"GARFIELD MEDICAL CENTER","GEORESULT":"S5HPNTSCZA","MISSING_BE":null,"ADDRESS":"525 NORTH GARFIELD AVENUE","LATITUDE":34.06762}},{"geometry":{"type":"Point","coordinates":[-118.256566,34.08438299999965]},"type":"Feature","properties":{"EMS_LEVEL":null,"BED_AVL":55,"TYPE_CNTRL":"Non-Profit","NON_PROFIT":"Y","SPA2011":"4","HOSPITAL":null,"BED_LIC":55,"BED_STF":35,"DSH_HOSP":"DSH","ZIP_CODE":"90026","LEVEL":null,"CLUSTERNAM":"Northeast","MAPID":"33","A911RH":null,"LICENSE_CA":"Acute Psychiatric Hospital","NAME2011":"Central","LONGITUDE":-118.256566,"OSHPD_ID":"106190317","SUPD2011":"1","ER":null,"CITY":"LOS ANGELES","NAME":"GATEWAYS HOSPITAL AND MENTAL HEALTH CENTER","GEORESULT":"S5HPNTSCZA","MISSING_BE":null,"ADDRESS":"1891 EFFIE STREET","LATITUDE":34.084383}},{"geometry":{"type":"Point","coordinates":[-118.231072,34.149533999999626]},"type":"Feature","properties":{"EMS_LEVEL":"Emergency - Basic","BED_AVL":454,"TYPE_CNTRL":"Non-Profit","NON_PROFIT":"Y","SPA2011":"2","HOSPITAL":null,"BED_LIC":457,"BED_STF":414,"DSH_HOSP":"Non-DSH","ZIP_CODE":"91206","LEVEL":null,"CLUSTERNAM":"San Fernando","MAPID":"34","A911RH":"YES","LICENSE_CA":"General Acute Care Hospital","NAME2011":"Glendale","LONGITUDE":-118.231072,"OSHPD_ID":"106190323","SUPD2011":"5","ER":"Y","CITY":"GLENDALE","NAME":"GLENDALE ADVENTIST MEDICAL CENTER - WILSON TERRACE","GEORESULT":"S5H-NTSCZA","MISSING_BE":null,"ADDRESS":"1509 EAST WILSON TERRACE","LATITUDE":34.149534}},{"geometry":{"type":"Point","coordinates":[-118.257731,34.128379999999616]},"type":"Feature","properties":{"EMS_LEVEL":"Emergency - Basic","BED_AVL":334,"TYPE_CNTRL":"Non-Profit","NON_PROFIT":"Y","SPA2011":"2","HOSPITAL":null,"BED_LIC":334,"BED_STF":164,"DSH_HOSP":"Non-DSH","ZIP_CODE":"91204","LEVEL":null,"CLUSTERNAM":"San Fernando","MAPID":"35","A911RH":"YES","LICENSE_CA":"General Acute Care Hospital","NAME2011":"Glendale","LONGITUDE":-118.257731,"OSHPD_ID":"106190522","SUPD2011":"5","ER":"Y","CITY":"GLENDALE","NAME":"GLENDALE MEMORIAL HOSPITAL AND HEALTH CENTER","GEORESULT":"S5HPNTSCZA","MISSING_BE":null,"ADDRESS":"1420 SOUTH CENTRAL AVENUE","LATITUDE":34.12838}},{"geometry":{"type":"Point","coordinates":[-118.265243,34.05327099999962]},"type":"Feature","properties":{"EMS_LEVEL":"Emergency - Basic","BED_AVL":376,"TYPE_CNTRL":"Non-Profit","NON_PROFIT":"Y","SPA2011":"4","HOSPITAL":null,"BED_LIC":408,"BED_STF":232,"DSH_HOSP":"Non-DSH","ZIP_CODE":"90017","LEVEL":null,"CLUSTERNAM":"Northeast","MAPID":"36","A911RH":"YES","LICENSE_CA":"General Acute Care Hospital","NAME2011":"Central","LONGITUDE":-118.265243,"OSHPD_ID":"106190392","SUPD2011":"1","ER":"Y","CITY":"LOS ANGELES","NAME":"GOOD SAMARITAN HOSPITAL-LOS ANGELES","GEORESULT":"S5HPNTSCZA","MISSING_BE":null,"ADDRESS":"1225 WILSHIRE BOULEVARD","LATITUDE":34.053271}},{"geometry":{"type":"Point","coordinates":[-118.042512,34.04920399999965]},"type":"Feature","properties":{"EMS_LEVEL":"Emergency - Basic","BED_AVL":117,"TYPE_CNTRL":"Investor","NON_PROFIT":"N","SPA2011":"3","HOSPITAL":null,"BED_LIC":117,"BED_STF":117,"DSH_HOSP":"DSH","ZIP_CODE":"91733","LEVEL":null,"CLUSTERNAM":"Northeast","MAPID":"37","A911RH":"YES","LICENSE_CA":"General Acute Care Hospital","NAME2011":"El Monte","LONGITUDE":-118.042512,"OSHPD_ID":"106190352","SUPD2011":"1","ER":"Y","CITY":"SOUTH EL MONTE","NAME":"GREATER EL MONTE COMMUNITY HOSPITAL","GEORESULT":"S5HPNTSCZA","MISSING_BE":null,"ADDRESS":"1701 SANTA ANITA AVENUE","LATITUDE":34.049204}},{"geometry":{"type":"Point","coordinates":[-118.553047,34.39649599999962]},"type":"Feature","properties":{"EMS_LEVEL":"Emergency - Basic","BED_AVL":221,"TYPE_CNTRL":"Non-Profit","NON_PROFIT":"Y","SPA2011":"2","HOSPITAL":"Y","BED_LIC":227,"BED_STF":221,"DSH_HOSP":"Non-DSH","ZIP_CODE":"91355","LEVEL":"2","CLUSTERNAM":"San Fernando","MAPID":"38","A911RH":"YES","LICENSE_CA":"General Acute Care Hospital","NAME2011":"San Fernando","LONGITUDE":-118.553047,"OSHPD_ID":"106190949","SUPD2011":"5","ER":"Y","CITY":"VALENCIA","NAME":"HENRY MAYO NEWHALL MEMORIAL HOSPITAL","GEORESULT":"S5H-NTSCZA","MISSING_BE":null,"ADDRESS":"23845 WEST MCBEAN PARKWAY","LATITUDE":34.396496}},{"geometry":{"type":"Point","coordinates":[-118.32515,34.096247999999605]},"type":"Feature","properties":{"EMS_LEVEL":null,"BED_AVL":159,"TYPE_CNTRL":"Investor","NON_PROFIT":"N","SPA2011":"4","HOSPITAL":null,"BED_LIC":159,"BED_STF":159,"DSH_HOSP":"DSH","ZIP_CODE":"90028","LEVEL":null,"CLUSTERNAM":"Northeast","MAPID":"39","A911RH":null,"LICENSE_CA":"General Acute Care Hospital","NAME2011":"Hollywood-Wilshire","LONGITUDE":-118.32515,"OSHPD_ID":"106190380","SUPD2011":"3","ER":null,"CITY":"HOLLYWOOD","NAME":"HOLLYWOOD COMMUNITY HOSPITAL OF HOLLYWOOD","GEORESULT":"S5HPNTS-ZA","MISSING_BE":null,"ADDRESS":"6245 DE LONGPRE AVENUE","LATITUDE":34.096248}},{"geometry":{"type":"Point","coordinates":[-118.447437,34.17670799999962]},"type":"Feature","properties":{"EMS_LEVEL":null,"BED_AVL":0,"TYPE_CNTRL":"Investor","NON_PROFIT":"N","SPA2011":"2","HOSPITAL":null,"BED_LIC":0,"BED_STF":0,"DSH_HOSP":null,"ZIP_CODE":"91401","LEVEL":null,"CLUSTERNAM":"San Fernando","MAPID":"40","A911RH":null,"LICENSE_CA":"General Acute Care Hospital","NAME2011":"West Valley","LONGITUDE":-118.447437,"OSHPD_ID":"106190814","SUPD2011":"3","ER":null,"CITY":"VAN NUYS","NAME":"HOLLYWOOD COMMUNITY HOSPITAL OF VAN NUYS","GEORESULT":"S5HPNTSCZA","MISSING_BE":"Part of 190380","ADDRESS":"14433 EMELITA STREET","LATITUDE":34.176708}},{"geometry":{"type":"Point","coordinates":[-118.291684,34.09563]},"type":"Feature","properties":{"EMS_LEVEL":"Emergency - Basic","BED_AVL":410,"TYPE_CNTRL":"Investor","NON_PROFIT":"N","SPA2011":"4","HOSPITAL":null,"BED_LIC":434,"BED_STF":410,"DSH_HOSP":"DSH","ZIP_CODE":"90027","LEVEL":null,"CLUSTERNAM":"Northeast","MAPID":"41","A911RH":"YES","LICENSE_CA":"General Acute Care Hospital","NAME2011":"Central","LONGITUDE":-118.291684,"OSHPD_ID":"106190382","SUPD2011":"3","ER":"Y","CITY":"LOS ANGELES","NAME":"HOLLYWOOD PRESBYTERIAN MEDICAL CENTER","GEORESULT":"S5HPNTSCZA","MISSING_BE":null,"ADDRESS":"1300 NORTH VERMONT AVENUE","LATITUDE":34.09563}},{"geometry":{"type":"Point","coordinates":[-118.152113,34.13565999999962]},"type":"Feature","properties":{"EMS_LEVEL":"Emergency - Basic","BED_AVL":547,"TYPE_CNTRL":"Non-Profit","NON_PROFIT":"Y","SPA2011":"3","HOSPITAL":"Y","BED_LIC":547,"BED_STF":525,"DSH_HOSP":"Non-DSH","ZIP_CODE":"91105","LEVEL":"2","CLUSTERNAM":"Northeast","MAPID":"42","A911RH":"YES","LICENSE_CA":"General Acute Care Hospital","NAME2011":"Pasadena","LONGITUDE":-118.152113,"OSHPD_ID":"106190400","SUPD2011":"5","ER":"Y","CITY":"PASADENA","NAME":"HUNTINGTON MEMORIAL HOSPITAL","GEORESULT":"S5HPNTSCZA","MISSING_BE":null,"ADDRESS":"100 W. CALIFORNIA BOULEVARD","LATITUDE":34.13566}},{"geometry":{"type":"Point","coordinates":[-118.553454,34.20010099999962]},"type":"Feature","properties":{"EMS_LEVEL":null,"BED_AVL":249,"TYPE_CNTRL":"Non-Profit","NON_PROFIT":"Y","SPA2011":"2","HOSPITAL":null,"BED_LIC":249,"BED_STF":249,"DSH_HOSP":"Non-DSH","ZIP_CODE":"91335","LEVEL":null,"CLUSTERNAM":"San Fernando","MAPID":"43","A911RH":null,"LICENSE_CA":"Acute Psychiatric Hospital","NAME2011":"West Valley","LONGITUDE":-118.553454,"OSHPD_ID":"106196404","SUPD2011":"3","ER":null,"CITY":"RESEDA","NAME":"JOYCE EISENBERG KEEFER MEDICAL CENTER","GEORESULT":"S5HPNTSCZA","MISSING_BE":null,"ADDRESS":"7150 TAMPA AVENUE","LATITUDE":34.200101}},{"geometry":{"type":"Point","coordinates":[-117.985814,34.0635189999996]},"type":"Feature","properties":{"EMS_LEVEL":"Emergency - Basic","BED_AVL":238,"TYPE_CNTRL":"Non-Profit","NON_PROFIT":"Y","SPA2011":"3","HOSPITAL":null,"BED_LIC":269,"BED_STF":167,"DSH_HOSP":"Non-DSH","ZIP_CODE":"91706","LEVEL":null,"CLUSTERNAM":"Northeast","MAPID":"44","A911RH":"YES","LICENSE_CA":"General Acute Care Hospital","NAME2011":"El Monte","LONGITUDE":-117.985814,"OSHPD_ID":"106196035","SUPD2011":"1","ER":"Y","CITY":"BALDWIN PARK","NAME":"KAISER FND HOSP - BALDWIN PARK","GEORESULT":"S5HPNTSCZA","MISSING_BE":null,"ADDRESS":"1011 BALDWIN PARK BLVD.","LATITUDE":34.063519}},{"geometry":{"type":"Point","coordinates":[-118.295311,34.09819399999961]},"type":"Feature","properties":{"EMS_LEVEL":"Emergency - Basic","BED_AVL":464,"TYPE_CNTRL":"Non-Profit","NON_PROFIT":"Y","SPA2011":"4","HOSPITAL":null,"BED_LIC":464,"BED_STF":377,"DSH_HOSP":"Non-DSH","ZIP_CODE":"90027","LEVEL":null,"CLUSTERNAM":"Northeast","MAPID":"45","A911RH":"YES","LICENSE_CA":"General Acute Care Hospital","NAME2011":"Hollywood-Wilshire","LONGITUDE":-118.295311,"OSHPD_ID":"106190429","SUPD2011":"3","ER":"Y","CITY":"LOS ANGELES","NAME":"KAISER FND HOSP - LOS ANGELES","GEORESULT":"S5H-NTSCZA","MISSING_BE":null,"ADDRESS":"4867 SUNSET BOULEVARD","LATITUDE":34.098194}},{"geometry":{"type":"Point","coordinates":[-118.242924,34.065979999999634]},"type":"Feature","properties":{"EMS_LEVEL":null,"BED_AVL":0,"TYPE_CNTRL":"Non-Profit","NON_PROFIT":"Y","SPA2011":"4","HOSPITAL":null,"BED_LIC":0,"BED_STF":0,"DSH_HOSP":null,"ZIP_CODE":"90012","LEVEL":null,"CLUSTERNAM":"Northeast","MAPID":"46","A911RH":null,"LICENSE_CA":"General Acute Care Hospital","NAME2011":"Central","LONGITUDE":-118.242924,"OSHPD_ID":"106190646","SUPD2011":"1","ER":null,"CITY":"LOS ANGELES","NAME":"KAISER FND HOSP - MENTAL HEALTH CENTER","GEORESULT":"S5H-NTSCZA","MISSING_BE":"Part of 190429","ADDRESS":"765 COLLEGE STREET","LATITUDE":34.06598}},{"geometry":{"type":"Point","coordinates":[-118.430455,34.21979199999963]},"type":"Feature","properties":{"EMS_LEVEL":"Emergency - Basic","BED_AVL":218,"TYPE_CNTRL":"Non-Profit","NON_PROFIT":"Y","SPA2011":"2","HOSPITAL":null,"BED_LIC":218,"BED_STF":156,"DSH_HOSP":"Non-DSH","ZIP_CODE":"91402","LEVEL":null,"CLUSTERNAM":"San Fernando","MAPID":"47","A911RH":"YES","LICENSE_CA":"General Acute Care Hospital","NAME2011":"West Valley","LONGITUDE":-118.430455,"OSHPD_ID":"106190432","SUPD2011":"3","ER":"Y","CITY":"PANORAMA CITY","NAME":"KAISER FND HOSP - PANORAMA CITY","GEORESULT":"S5HPNTSCZA","MISSING_BE":null,"ADDRESS":"13652 CANTARA STREET","LATITUDE":34.219792}},{"geometry":{"type":"Point","coordinates":[-118.293959,33.78905899999962]},"type":"Feature","properties":{"EMS_LEVEL":"Emergency - Basic","BED_AVL":235,"TYPE_CNTRL":"Non-Profit","NON_PROFIT":"Y","SPA2011":"8","HOSPITAL":null,"BED_LIC":235,"BED_STF":207,"DSH_HOSP":"Non-DSH","ZIP_CODE":"90710","LEVEL":null,"CLUSTERNAM":"Coastal","MAPID":"48","A911RH":"YES","LICENSE_CA":"General Acute Care Hospital","NAME2011":"Harbor","LONGITUDE":-118.293959,"OSHPD_ID":"106190431","SUPD2011":"4","ER":"Y","CITY":"HARBOR CITY","NAME":"KAISER FND HOSP - SOUTH BAY","GEORESULT":"S5H-NTSCZA","MISSING_BE":null,"ADDRESS":"25825 SOUTH VERMONT AVENUE","LATITUDE":33.789059}},{"geometry":{"type":"Point","coordinates":[-118.375458,34.0378299999996]},"type":"Feature","properties":{"EMS_LEVEL":"Emergency - Basic","BED_AVL":305,"TYPE_CNTRL":"Non-Profit","NON_PROFIT":"Y","SPA2011":"4","HOSPITAL":null,"BED_LIC":305,"BED_STF":147,"DSH_HOSP":"Non-DSH","ZIP_CODE":"90034","LEVEL":null,"CLUSTERNAM":"Northeast","MAPID":"49","A911RH":"YES","LICENSE_CA":"General Acute Care Hospital","NAME2011":"Hollywood-Wilshire","LONGITUDE":-118.375458,"OSHPD_ID":"106190434","SUPD2011":"2","ER":"Y","CITY":"LOS ANGELES","NAME":"KAISER FND HOSP - WEST LA","GEORESULT":"S5HPNTSCZA","MISSING_BE":null,"ADDRESS":"6041 CADILLAC AVENUE","LATITUDE":34.03783}},{"geometry":{"type":"Point","coordinates":[-118.588246,34.1708109999996]},"type":"Feature","properties":{"EMS_LEVEL":"Emergency - Basic","BED_AVL":262,"TYPE_CNTRL":"Non-Profit","NON_PROFIT":"Y","SPA2011":"2","HOSPITAL":null,"BED_LIC":262,"BED_STF":172,"DSH_HOSP":"Non-DSH","ZIP_CODE":"91367","LEVEL":null,"CLUSTERNAM":"San Fernando","MAPID":"50","A911RH":"YES","LICENSE_CA":"General Acute Care Hospital","NAME2011":"West Valley","LONGITUDE":-118.588246,"OSHPD_ID":"106191450","SUPD2011":"3","ER":"Y","CITY":"WOODLAND HILLS","NAME":"KAISER FND HOSP - WOODLAND HILLS","GEORESULT":"S5HPNTSCZA","MISSING_BE":null,"ADDRESS":"5601 DE SOTO AVENUE","LATITUDE":34.170811}},{"geometry":{"type":"Point","coordinates":[-118.129069,33.91715599999959]},"type":"Feature","properties":{"EMS_LEVEL":"Emergency - Basic","BED_AVL":352,"TYPE_CNTRL":"Non-Profit","NON_PROFIT":"Y","SPA2011":"7","HOSPITAL":null,"BED_LIC":352,"BED_STF":258,"DSH_HOSP":"Non-DSH","ZIP_CODE":"90242","LEVEL":null,"CLUSTERNAM":"Southwest","MAPID":"51","A911RH":"YES","LICENSE_CA":"General Acute Care Hospital","NAME2011":"San Antonio","LONGITUDE":-118.129069,"OSHPD_ID":"106196403","SUPD2011":"4","ER":"Y","CITY":"DOWNEY","NAME":"KAISER FOUNDATION HOSPITAL - DOWNEY","GEORESULT":"S5HPNTSCZA","MISSING_BE":null,"ADDRESS":"9333 IMPERIAL HIGHWAY","LATITUDE":33.917156}},{"geometry":{"type":"Point","coordinates":[-118.203091,34.06238799999963]},"type":"Feature","properties":{"EMS_LEVEL":null,"BED_AVL":394,"TYPE_CNTRL":"Non-Profit","NON_PROFIT":"Y","SPA2011":"4","HOSPITAL":null,"BED_LIC":411,"BED_STF":181,"DSH_HOSP":"Non-DSH","ZIP_CODE":"90033","LEVEL":null,"CLUSTERNAM":"Northeast","MAPID":"52","A911RH":null,"LICENSE_CA":"General Acute Care Hospital","NAME2011":"Northeast","LONGITUDE":-118.203091,"OSHPD_ID":"106194219","SUPD2011":"1","ER":null,"CITY":"LOS ANGELES","NAME":"KECK HOSPITAL OF USC","GEORESULT":"S5HPNTSCZA","MISSING_BE":null,"ADDRESS":"1500 SAN PABLO STREET","LATITUDE":34.062388}},{"geometry":{"type":"Point","coordinates":[-118.265318,34.00727799999964]},"type":"Feature","properties":{"EMS_LEVEL":null,"BED_AVL":66,"TYPE_CNTRL":"Non-Profit","NON_PROFIT":"Y","SPA2011":"6","HOSPITAL":null,"BED_LIC":66,"BED_STF":66,"DSH_HOSP":"Non-DSH","ZIP_CODE":"90011","LEVEL":null,"CLUSTERNAM":"Southwest","MAPID":"53","A911RH":null,"LICENSE_CA":"Acute Psychiatric Hospital","NAME2011":"Southeast","LONGITUDE":-118.265318,"OSHPD_ID":"106190150","SUPD2011":"2","ER":null,"CITY":"LOS ANGELES","NAME":"KEDREN COMMUNITY MENTAL HEALTH CENTER","GEORESULT":"S5H-NTSCZA","MISSING_BE":null,"ADDRESS":"4211 SOUTH AVALON BOULEVARD","LATITUDE":34.007278}},{"geometry":{"type":"Point","coordinates":[-118.01359,33.91706799999962]},"type":"Feature","properties":{"EMS_LEVEL":null,"BED_AVL":248,"TYPE_CNTRL":"Investor","NON_PROFIT":"N","SPA2011":"7","HOSPITAL":null,"BED_LIC":248,"BED_STF":224,"DSH_HOSP":"Non-DSH","ZIP_CODE":"90637","LEVEL":null,"CLUSTERNAM":"Northeast","MAPID":"54","A911RH":null,"LICENSE_CA":"General Acute Care Hospital","NAME2011":"Whittier","LONGITUDE":-118.01359,"OSHPD_ID":"106190449","SUPD2011":"4","ER":null,"CITY":"LA MIRADA","NAME":"KINDRED HOSPITAL - LA MIRADA","GEORESULT":"S5H-NTSC-A","MISSING_BE":null,"ADDRESS":"14900 EAST IMPERIAL HIGHWAY","LATITUDE":33.917068}},{"geometry":{"type":"Point","coordinates":[-118.378122,33.988975999999624]},"type":"Feature","properties":{"EMS_LEVEL":null,"BED_AVL":81,"TYPE_CNTRL":"Investor","NON_PROFIT":"N","SPA2011":"5","HOSPITAL":null,"BED_LIC":81,"BED_STF":81,"DSH_HOSP":"Non-DSH","ZIP_CODE":"90056","LEVEL":null,"CLUSTERNAM":"Northeast","MAPID":"55","A911RH":null,"LICENSE_CA":"General Acute Care Hospital","NAME2011":"West","LONGITUDE":-118.378122,"OSHPD_ID":"106190305","SUPD2011":"2","ER":null,"CITY":"LOS ANGELES","NAME":"KINDRED HOSPITAL - LOS ANGELES","GEORESULT":"S5HPNTSCZA","MISSING_BE":null,"ADDRESS":"5525 WEST SLAUSON AVENUE","LATITUDE":33.988976}},{"geometry":{"type":"Point","coordinates":[-117.916672,34.08726099999963]},"type":"Feature","properties":{"EMS_LEVEL":null,"BED_AVL":0,"TYPE_CNTRL":"Investor","NON_PROFIT":"N","SPA2011":"3","HOSPITAL":null,"BED_LIC":0,"BED_STF":0,"DSH_HOSP":null,"ZIP_CODE":"91791","LEVEL":null,"CLUSTERNAM":"Northeast","MAPID":"56","A911RH":null,"LICENSE_CA":"General Acute Care Hospital","NAME2011":"Pomona","LONGITUDE":-117.916672,"OSHPD_ID":"106190458","SUPD2011":"1","ER":null,"CITY":"WEST COVINA","NAME":"KINDRED HOSPITAL - SAN GABRIEL VALLEY","GEORESULT":"S5HPNTSCZA","MISSING_BE":"Part of 190449","ADDRESS":"845 NORTH LARK ELLEN AVENUE","LATITUDE":34.087261}},{"geometry":{"type":"Point","coordinates":[-117.967803,34.06386299999961]},"type":"Feature","properties":{"EMS_LEVEL":null,"BED_AVL":71,"TYPE_CNTRL":"Investor","NON_PROFIT":"N","SPA2011":"3","HOSPITAL":null,"BED_LIC":71,"BED_STF":71,"DSH_HOSP":"Non-DSH","ZIP_CODE":"91706","LEVEL":null,"CLUSTERNAM":"Northeast","MAPID":"57","A911RH":null,"LICENSE_CA":"General Acute Care Hospital","NAME2011":"El Monte","LONGITUDE":-117.967803,"OSHPD_ID":"106190049","SUPD2011":"1","ER":null,"CITY":"BALDWIN PARK","NAME":"KINDRED HOSPITAL BALDWIN PARK","GEORESULT":"S5HPNTSCZA","MISSING_BE":null,"ADDRESS":"14148 FRANCISQUITO AVENUE","LATITUDE":34.063863}},{"geometry":{"type":"Point","coordinates":[-118.296972,33.8904619999996]},"type":"Feature","properties":{"EMS_LEVEL":null,"BED_AVL":84,"TYPE_CNTRL":"Investor","NON_PROFIT":"N","SPA2011":"8","HOSPITAL":null,"BED_LIC":84,"BED_STF":84,"DSH_HOSP":"Non-DSH","ZIP_CODE":"90247","LEVEL":null,"CLUSTERNAM":"Southwest","MAPID":"58","A911RH":null,"LICENSE_CA":"General Acute Care Hospital","NAME2011":"Inglewood","LONGITUDE":-118.296972,"OSHPD_ID":"106190196","SUPD2011":"2","ER":null,"CITY":"GARDENA","NAME":"KINDRED HOSPITAL SOUTH BAY","GEORESULT":"S5HPNTSCZA","MISSING_BE":null,"ADDRESS":"1246 WEST 155TH STREET","LATITUDE":33.890462}},{"geometry":{"type":"Point","coordinates":[-118.159845,33.86480999999961]},"type":"Feature","properties":{"EMS_LEVEL":null,"BED_AVL":16,"TYPE_CNTRL":"Investor","NON_PROFIT":"N","SPA2011":"8","HOSPITAL":null,"BED_LIC":16,"BED_STF":16,"DSH_HOSP":"Non-DSH","ZIP_CODE":"90805","LEVEL":null,"CLUSTERNAM":"Coastal","MAPID":"59","A911RH":null,"LICENSE_CA":"Psychiatric Health Facility","NAME2011":"Long Beach","LONGITUDE":-118.159845,"OSHPD_ID":"106194981","SUPD2011":"4","ER":null,"CITY":"LONG BEACH","NAME":"LA CASA PSYCHIATRIC HEALTH FACILITY","GEORESULT":"S5H-NTSCZA","MISSING_BE":null,"ADDRESS":"6060 PARAMOUNT BLVD.","LATITUDE":33.86481}},{"geometry":{"type":"Point","coordinates":[-118.293024,33.8315269999996]},"type":"Feature","properties":{"EMS_LEVEL":"Emergency - Basic","BED_AVL":459,"TYPE_CNTRL":"City/County","NON_PROFIT":"Y","SPA2011":"8","HOSPITAL":"Y","BED_LIC":538,"BED_STF":347,"DSH_HOSP":"DSH","ZIP_CODE":"90502","LEVEL":"1","CLUSTERNAM":"Coastal","MAPID":"60","A911RH":"YES","LICENSE_CA":"General Acute Care Hospital","NAME2011":"Torrance","LONGITUDE":-118.293024,"OSHPD_ID":"106191227","SUPD2011":"2","ER":"Y","CITY":"TORRANCE","NAME":"LAC/HARBOR-UCLA MEDICAL CENTER","GEORESULT":"S5HPNTSCZA","MISSING_BE":null,"ADDRESS":"1000 WEST CARSON STREET","LATITUDE":33.831527}},{"geometry":{"type":"Point","coordinates":[-118.156382,33.92640299999964]},"type":"Feature","properties":{"EMS_LEVEL":null,"BED_AVL":324,"TYPE_CNTRL":"City/County","NON_PROFIT":"Y","SPA2011":"7","HOSPITAL":null,"BED_LIC":395,"BED_STF":219,"DSH_HOSP":"DSH","ZIP_CODE":"90242","LEVEL":null,"CLUSTERNAM":"Southwest","MAPID":"61","A911RH":null,"LICENSE_CA":"General Acute Care Hospital","NAME2011":"San Antonio","LONGITUDE":-118.156382,"OSHPD_ID":"106191306","SUPD2011":"4","ER":null,"CITY":"DOWNEY","NAME":"LAC/RANCHO LOS AMIGOS NATIONAL REHAB CENTER","GEORESULT":"S5H-NTSCZA","MISSING_BE":null,"ADDRESS":"7601 EAST IMPERIAL HIGHWAY","LATITUDE":33.926403}},{"geometry":{"type":"Point","coordinates":[-118.20983,34.05918699999963]},"type":"Feature","properties":{"EMS_LEVEL":"Emergency - Comprehensive","BED_AVL":667,"TYPE_CNTRL":"City/County","NON_PROFIT":"Y","SPA2011":"4","HOSPITAL":"Y","BED_LIC":724,"BED_STF":665,"DSH_HOSP":"DSH","ZIP_CODE":"90033","LEVEL":"1","CLUSTERNAM":"Northeast","MAPID":"62","A911RH":"YES","LICENSE_CA":"General Acute Care Hospital","NAME2011":"Northeast","LONGITUDE":-118.20983,"OSHPD_ID":"106191228","SUPD2011":"1","ER":"Y","CITY":"LOS ANGELES","NAME":"LAC+USC MEDICAL CENTER","GEORESULT":"S5HPNTSCZA","MISSING_BE":null,"ADDRESS":"1200 NORTH STATE STREET","LATITUDE":34.059187}},{"geometry":{"type":"Point","coordinates":[-118.148537,33.860169999999606]},"type":"Feature","properties":{"EMS_LEVEL":"Emergency - Basic","BED_AVL":172,"TYPE_CNTRL":"Investor","NON_PROFIT":"N","SPA2011":"7","HOSPITAL":null,"BED_LIC":172,"BED_STF":105,"DSH_HOSP":"Non-DSH","ZIP_CODE":"90712","LEVEL":null,"CLUSTERNAM":"Coastal","MAPID":"63","A911RH":"YES","LICENSE_CA":"General Acute Care Hospital","NAME2011":"Bellflower","LONGITUDE":-118.148537,"OSHPD_ID":"106190240","SUPD2011":"4","ER":"Y","CITY":"LAKEWOOD","NAME":"LAKEWOOD REGIONAL MEDICAL CENTER","GEORESULT":"S5H-NTSCZA","MISSING_BE":null,"ADDRESS":"3700 EAST SOUTH STREET","LATITUDE":33.86017}},{"geometry":{"type":"Point","coordinates":[-117.812605,34.045895999999594]},"type":"Feature","properties":{"EMS_LEVEL":null,"BED_AVL":1258,"TYPE_CNTRL":"State","NON_PROFIT":"Y","SPA2011":"3","HOSPITAL":null,"BED_LIC":1258,"BED_STF":390,"DSH_HOSP":"Non-DSH","ZIP_CODE":"91768","LEVEL":null,"CLUSTERNAM":"Northeast","MAPID":"64","A911RH":null,"LICENSE_CA":"General Acute Care Hospital","NAME2011":"Pomona","LONGITUDE":-117.812605,"OSHPD_ID":"106191014","SUPD2011":"1","ER":null,"CITY":"POMONA","NAME":"LANTERMAN DEVELOPMENTAL CENTER","GEORESULT":"S5HPNTSCZA","MISSING_BE":null,"ADDRESS":"3530 POMONA BOULEVARD","LATITUDE":34.045896}},{"geometry":{"type":"Point","coordinates":[-118.185156,33.80807899999962]},"type":"Feature","properties":{"EMS_LEVEL":"Emergency - Basic","BED_AVL":462,"TYPE_CNTRL":"Non-Profit","NON_PROFIT":"Y","SPA2011":"8","HOSPITAL":"Y","BED_LIC":462,"BED_STF":317,"DSH_HOSP":"Non-DSH","ZIP_CODE":"90806","LEVEL":"2","CLUSTERNAM":"Coastal","MAPID":"65","A911RH":"YES","LICENSE_CA":"General Acute Care Hospital","NAME2011":"Long Beach","LONGITUDE":-118.185156,"OSHPD_ID":"106190525","SUPD2011":"4","ER":"Y","CITY":"LONG BEACH","NAME":"LONG BEACH MEMORIAL MEDICAL CENTER","GEORESULT":"S5HPNTSCZA","MISSING_BE":null,"ADDRESS":"2801 ATLANTIC AVENUE","LATITUDE":33.808079}},{"geometry":{"type":"Point","coordinates":[-118.186677,34.01892799999961]},"type":"Feature","properties":{"EMS_LEVEL":"Emergency - Standby","BED_AVL":180,"TYPE_CNTRL":"Investor","NON_PROFIT":"N","SPA2011":"7","HOSPITAL":null,"BED_LIC":180,"BED_STF":180,"DSH_HOSP":"DSH","ZIP_CODE":"90023","LEVEL":null,"CLUSTERNAM":"Northeast","MAPID":"66","A911RH":null,"LICENSE_CA":"General Acute Care Hospital","NAME2011":"East LA","LONGITUDE":-118.186677,"OSHPD_ID":"106190198","SUPD2011":"1","ER":"Y","CITY":"LOS ANGELES","NAME":"LOS ANGELES COMMUNITY HOSPITAL","GEORESULT":"S5HPNTSCZA","MISSING_BE":null,"ADDRESS":"4081 EAST OLYMPIC BOULEVARD","LATITUDE":34.018928}},{"geometry":{"type":"Point","coordinates":[-118.447913,34.32424999999962]},"type":"Feature","properties":{"EMS_LEVEL":"Emergency - Basic","BED_AVL":275,"TYPE_CNTRL":"City/County","NON_PROFIT":"Y","SPA2011":"2","HOSPITAL":null,"BED_LIC":377,"BED_STF":275,"DSH_HOSP":"DSH","ZIP_CODE":"91342","LEVEL":null,"CLUSTERNAM":"San Fernando","MAPID":"67","A911RH":"YES","LICENSE_CA":"General Acute Care Hospital","NAME2011":"San Fernando","LONGITUDE":-118.447913,"OSHPD_ID":"106191231","SUPD2011":"5","ER":"Y","CITY":"SYLMAR","NAME":"LOS ANGELES COUNTY OLIVE VIEW-UCLA MEDICAL CENTER","GEORESULT":"S5HPNTSCZA","MISSING_BE":null,"ADDRESS":"14445 OLIVE VIEW DRIVE","LATITUDE":34.32425}},{"geometry":{"type":"Point","coordinates":[-118.352318,33.91165999999962]},"type":"Feature","properties":{"EMS_LEVEL":null,"BED_AVL":0,"TYPE_CNTRL":"Investor","NON_PROFIT":"N","SPA2011":"8","HOSPITAL":null,"BED_LIC":0,"BED_STF":0,"DSH_HOSP":null,"ZIP_CODE":"90250","LEVEL":null,"CLUSTERNAM":"Southwest","MAPID":"68","A911RH":null,"LICENSE_CA":"General Acute Care Hospital","NAME2011":"Inglewood","LONGITUDE":-118.352318,"OSHPD_ID":"106190523","SUPD2011":"2","ER":null,"CITY":"HAWTHORNE","NAME":"LOS ANGELES METROPOLITAN MED CTR-HAWTHORNE CAMPUS","GEORESULT":"S5H-NTSCZA","MISSING_BE":"Part of 190854","ADDRESS":"13300 SO. HAWTHORNE BOULEVARD","LATITUDE":33.91166}},{"geometry":{"type":"Point","coordinates":[-118.309044,34.03566299999962]},"type":"Feature","properties":{"EMS_LEVEL":"Emergency - Basic","BED_AVL":210,"TYPE_CNTRL":"Investor","NON_PROFIT":"N","SPA2011":"6","HOSPITAL":null,"BED_LIC":213,"BED_STF":210,"DSH_HOSP":"DSH","ZIP_CODE":"90018","LEVEL":null,"CLUSTERNAM":"Northeast","MAPID":"69","A911RH":"YES","LICENSE_CA":"General Acute Care Hospital","NAME2011":"Southwest","LONGITUDE":-118.309044,"OSHPD_ID":"106190854","SUPD2011":"2","ER":"Y","CITY":"LOS ANGELES","NAME":"LOS ANGELES METROPOLITAN MEDICAL CENTER","GEORESULT":"S5HPNTSCZA","MISSING_BE":null,"ADDRESS":"2231 SOUTH WESTERN AVENUE","LATITUDE":34.035663}},{"geometry":{"type":"Point","coordinates":[-118.440545,33.98224099999961]},"type":"Feature","properties":{"EMS_LEVEL":"Emergency - Basic","BED_AVL":90,"TYPE_CNTRL":"Investor","NON_PROFIT":"N","SPA2011":"5","HOSPITAL":null,"BED_LIC":90,"BED_STF":47,"DSH_HOSP":"Non-DSH","ZIP_CODE":"90291","LEVEL":null,"CLUSTERNAM":"Northeast","MAPID":"70","A911RH":"YES","LICENSE_CA":"General Acute Care Hospital","NAME2011":"West","LONGITUDE":-118.440545,"OSHPD_ID":"106190500","SUPD2011":"2","ER":"Y","CITY":"MARINA DEL REY","NAME":"MARINA DEL REY HOSPITAL","GEORESULT":"S5HPNTSC-A","MISSING_BE":null,"ADDRESS":"4650 LINCOLN BOULEVARD","LATITUDE":33.982241}},{"geometry":{"type":"Point","coordinates":[-118.295148,33.8924289999996]},"type":"Feature","properties":{"EMS_LEVEL":"Emergency - Basic","BED_AVL":172,"TYPE_CNTRL":"Investor","NON_PROFIT":"N","SPA2011":"8","HOSPITAL":null,"BED_LIC":172,"BED_STF":172,"DSH_HOSP":"DSH","ZIP_CODE":"90247","LEVEL":null,"CLUSTERNAM":"Southwest","MAPID":"71","A911RH":"YES","LICENSE_CA":"General Acute Care Hospital","NAME2011":"Inglewood","LONGITUDE":-118.295148,"OSHPD_ID":"106190521","SUPD2011":"2","ER":"Y","CITY":"GARDENA","NAME":"MEMORIAL HOSPITAL OF GARDENA","GEORESULT":"S5HPNTSCZA","MISSING_BE":null,"ADDRESS":"1145 W. REDONDO BEACH BLVD.","LATITUDE":33.892429}},{"geometry":{"type":"Point","coordinates":[-118.041986,34.13526499999963]},"type":"Feature","properties":{"EMS_LEVEL":"Emergency - Basic","BED_AVL":395,"TYPE_CNTRL":"Non-Profit","NON_PROFIT":"Y","SPA2011":"3","HOSPITAL":null,"BED_LIC":460,"BED_STF":277,"DSH_HOSP":"Non-DSH","ZIP_CODE":"91007","LEVEL":null,"CLUSTERNAM":"Northeast","MAPID":"72","A911RH":"YES","LICENSE_CA":"General Acute Care Hospital","NAME2011":"Foothill","LONGITUDE":-118.041986,"OSHPD_ID":"106190529","SUPD2011":"5","ER":"Y","CITY":"ARCADIA","NAME":"METHODIST HOSPITAL OF SOUTHERN CALIFORNIA","GEORESULT":"S5HPNTSCZA","MISSING_BE":null,"ADDRESS":"300 WEST HUNTINGTON DRIVE","LATITUDE":34.135265}},{"geometry":{"type":"Point","coordinates":[-118.072546,33.92808699999963]},"type":"Feature","properties":{"EMS_LEVEL":null,"BED_AVL":718,"TYPE_CNTRL":"State","NON_PROFIT":"Y","SPA2011":"7","HOSPITAL":null,"BED_LIC":1096,"BED_STF":659,"DSH_HOSP":"Non-DSH","ZIP_CODE":"90650","LEVEL":null,"CLUSTERNAM":"Northeast","MAPID":"73","A911RH":null,"LICENSE_CA":"Acute Psychiatric Hospital","NAME2011":"Whittier","LONGITUDE":-118.072546,"OSHPD_ID":"106190958","SUPD2011":"4","ER":null,"CITY":"NORWALK","NAME":"METROPOLITAN STATE HOSPITAL","GEORESULT":"S5H-NTSCZA","MISSING_BE":null,"ADDRESS":"11400 SOUTH NORWALK BOULEVARD","LATITUDE":33.928087}},{"geometry":{"type":"Point","coordinates":[-118.361977,34.05727699999964]},"type":"Feature","properties":{"EMS_LEVEL":null,"BED_AVL":17,"TYPE_CNTRL":"Investor","NON_PROFIT":"N","SPA2011":"4","HOSPITAL":null,"BED_LIC":17,"BED_STF":17,"DSH_HOSP":"Non-DSH","ZIP_CODE":"90036","LEVEL":null,"CLUSTERNAM":"Northeast","MAPID":"74","A911RH":null,"LICENSE_CA":"General Acute Care Hospital","NAME2011":"Hollywood-Wilshire","LONGITUDE":-118.361977,"OSHPD_ID":"106190681","SUPD2011":"2","ER":null,"CITY":"LOS ANGELES","NAME":"MIRACLE MILE MEDICAL CENTER","GEORESULT":"S5HPNTSCZA","MISSING_BE":null,"ADDRESS":"6000 SAN VICENTE BOULEVARD","LATITUDE":34.057277}},{"geometry":{"type":"Point","coordinates":[-118.456901,34.221439999999625]},"type":"Feature","properties":{"EMS_LEVEL":"Emergency - Basic","BED_AVL":145,"TYPE_CNTRL":"Non-Profit","NON_PROFIT":"Y","SPA2011":"2","HOSPITAL":null,"BED_LIC":145,"BED_STF":145,"DSH_HOSP":"DSH","ZIP_CODE":"91402","LEVEL":null,"CLUSTERNAM":"San Fernando","MAPID":"75","A911RH":"YES","LICENSE_CA":"General Acute Care Hospital","NAME2011":"West Valley","LONGITUDE":-118.456901,"OSHPD_ID":"106190524","SUPD2011":"3","ER":"Y","CITY":"PANORAMA CITY","NAME":"MISSION COMMUNITY HOSPITAL - PANORAMA CAMPUS","GEORESULT":"S5HPNTSCZA","MISSING_BE":null,"ADDRESS":"14850 ROSCOE BOULEVARD","LATITUDE":34.22144}},{"geometry":{"type":"Point","coordinates":[-117.992218,34.14905499999962]},"type":"Feature","properties":{"EMS_LEVEL":null,"BED_AVL":49,"TYPE_CNTRL":"Investor","NON_PROFIT":"N","SPA2011":"3","HOSPITAL":null,"BED_LIC":49,"BED_STF":49,"DSH_HOSP":"Non-DSH","ZIP_CODE":"91016","LEVEL":null,"CLUSTERNAM":"Northeast","MAPID":"76","A911RH":null,"LICENSE_CA":"General Acute Care Hospital","NAME2011":"Foothill","LONGITUDE":-117.992218,"OSHPD_ID":"106190541","SUPD2011":"5","ER":null,"CITY":"MONROVIA","NAME":"MONROVIA MEMORIAL HOSPITAL","GEORESULT":"S5HPNTSCZA","MISSING_BE":null,"ADDRESS":"323 SOUTH HELIOTROPE AVENUE","LATITUDE":34.149055}},{"geometry":{"type":"Point","coordinates":[-118.138471,34.05009999999962]},"type":"Feature","properties":{"EMS_LEVEL":"Emergency - Basic","BED_AVL":101,"TYPE_CNTRL":"Investor","NON_PROFIT":"N","SPA2011":"3","HOSPITAL":null,"BED_LIC":101,"BED_STF":101,"DSH_HOSP":"DSH","ZIP_CODE":"91754","LEVEL":null,"CLUSTERNAM":"Northeast","MAPID":"77","A911RH":"YES","LICENSE_CA":"General Acute Care Hospital","NAME2011":"Alhambra","LONGITUDE":-118.138471,"OSHPD_ID":"106190547","SUPD2011":"1","ER":"Y","CITY":"MONTEREY PARK","NAME":"MONTEREY PARK HOSPITAL","GEORESULT":"S5HPNTSCZA","MISSING_BE":null,"ADDRESS":"900 SOUTH ATLANTIC BOULEVARD","LATITUDE":34.0501}},{"geometry":{"type":"Point","coordinates":[-118.63613,34.15840999999963]},"type":"Feature","properties":{"EMS_LEVEL":null,"BED_AVL":398,"TYPE_CNTRL":"Non-Profit","NON_PROFIT":"Y","SPA2011":"2","HOSPITAL":null,"BED_LIC":412,"BED_STF":267,"DSH_HOSP":"Non-DSH","ZIP_CODE":"91364","LEVEL":null,"CLUSTERNAM":"San Fernando","MAPID":"78","A911RH":null,"LICENSE_CA":"General Acute Care Hospital","NAME2011":"West Valley","LONGITUDE":-118.63613,"OSHPD_ID":"106190552","SUPD2011":"3","ER":null,"CITY":"WOODLAND HILLS","NAME":"MOTION PICTURE AND TELEVISION HOSPITAL","GEORESULT":"S5HPNTSCZA","MISSING_BE":null,"ADDRESS":"23388 MULHOLLAND DRIVE","LATITUDE":34.15841}},{"geometry":{"type":"Point","coordinates":[-118.531795,34.22075899999963]},"type":"Feature","properties":{"EMS_LEVEL":"Emergency - Basic","BED_AVL":411,"TYPE_CNTRL":"Non-Profit","NON_PROFIT":"Y","SPA2011":"2","HOSPITAL":"Y","BED_LIC":411,"BED_STF":254,"DSH_HOSP":"Non-DSH","ZIP_CODE":"91328","LEVEL":"2","CLUSTERNAM":"San Fernando","MAPID":"79","A911RH":"YES","LICENSE_CA":"General Acute Care Hospital","NAME2011":"West Valley","LONGITUDE":-118.531795,"OSHPD_ID":"106190568","SUPD2011":"3","ER":"Y","CITY":"NORTHRIDGE","NAME":"NORTHRIDGE HOSPITAL MEDICAL CENTER","GEORESULT":"S5HPNTSC-A","MISSING_BE":null,"ADDRESS":"18300 ROSCOE BOULEVARD","LATITUDE":34.220759}},{"geometry":{"type":"Point","coordinates":[-118.064439,33.91107799999961]},"type":"Feature","properties":{"EMS_LEVEL":"Emergency - Basic","BED_AVL":0,"TYPE_CNTRL":"Investor","NON_PROFIT":"N","SPA2011":"7","HOSPITAL":null,"BED_LIC":0,"BED_STF":0,"DSH_HOSP":null,"ZIP_CODE":"90650","LEVEL":null,"CLUSTERNAM":"Coastal","MAPID":"80","A911RH":"YES","LICENSE_CA":"General Acute Care Hospital","NAME2011":"Bellflower","LONGITUDE":-118.064439,"OSHPD_ID":"106190570","SUPD2011":"4","ER":"Y","CITY":"NORWALK","NAME":"NORWALK COMMUNITY HOSPITAL","GEORESULT":"S5HPNTSCZA","MISSING_BE":"Part of 190198","ADDRESS":"13222 BLOOMFIELD AVENUE","LATITUDE":33.911078}},{"geometry":{"type":"Point","coordinates":[-118.35995,34.057485999999635]},"type":"Feature","properties":{"EMS_LEVEL":"Emergency - Basic","BED_AVL":140,"TYPE_CNTRL":"Investor","NON_PROFIT":"N","SPA2011":"4","HOSPITAL":null,"BED_LIC":204,"BED_STF":140,"DSH_HOSP":"Non-DSH","ZIP_CODE":"90036","LEVEL":null,"CLUSTERNAM":"Northeast","MAPID":"81","A911RH":"YES","LICENSE_CA":"General Acute Care Hospital","NAME2011":"Hollywood-Wilshire","LONGITUDE":-118.35995,"OSHPD_ID":"106190534","SUPD2011":"2","ER":"Y","CITY":"LOS ANGELES","NAME":"OLYMPIA MEDICAL CENTER","GEORESULT":"S5HP--SCZA","MISSING_BE":null,"ADDRESS":"5900 WEST OLYMPIA BLVD","LATITUDE":34.057486}},{"geometry":{"type":"Point","coordinates":[-118.239084,34.06463399999962]},"type":"Feature","properties":{"EMS_LEVEL":null,"BED_AVL":142,"TYPE_CNTRL":"Investor","NON_PROFIT":"N","SPA2011":"4","HOSPITAL":null,"BED_LIC":142,"BED_STF":132,"DSH_HOSP":"DSH","ZIP_CODE":"90012","LEVEL":null,"CLUSTERNAM":"Northeast","MAPID":"82","A911RH":null,"LICENSE_CA":"General Acute Care Hospital","NAME2011":"Central","LONGITUDE":-118.239084,"OSHPD_ID":"106190307","SUPD2011":"1","ER":null,"CITY":"LOS ANGELES","NAME":"PACIFIC ALLIANCE MEDICAL CENTER, INC.","GEORESULT":"S5HPNTSCZA","MISSING_BE":null,"ADDRESS":"531 WEST COLLEGE STREET","LATITUDE":34.064634}},{"geometry":{"type":"Point","coordinates":[-118.193651,33.80756199999963]},"type":"Feature","properties":{"EMS_LEVEL":"Emergency - Basic","BED_AVL":184,"TYPE_CNTRL":"Investor","NON_PROFIT":"N","SPA2011":"8","HOSPITAL":null,"BED_LIC":184,"BED_STF":133,"DSH_HOSP":"DSH","ZIP_CODE":"90806","LEVEL":null,"CLUSTERNAM":"Coastal","MAPID":"83","A911RH":"YES","LICENSE_CA":"General Acute Care Hospital","NAME2011":"Long Beach","LONGITUDE":-118.193651,"OSHPD_ID":"106190587","SUPD2011":"4","ER":"Y","CITY":"LONG BEACH","NAME":"PACIFIC HOSPITAL OF LONG BEACH","GEORESULT":"S5HPNTSCZA","MISSING_BE":null,"ADDRESS":"2776 PACIFIC AVENUE","LATITUDE":33.807562}},{"geometry":{"type":"Point","coordinates":[-118.193784,33.78850299999962]},"type":"Feature","properties":{"EMS_LEVEL":null,"BED_AVL":0,"TYPE_CNTRL":"Investor","NON_PROFIT":"N","SPA2011":"8","HOSPITAL":null,"BED_LIC":0,"BED_STF":0,"DSH_HOSP":null,"ZIP_CODE":"90813","LEVEL":null,"CLUSTERNAM":"Coastal","MAPID":"84","A911RH":null,"LICENSE_CA":"General Acute Care Hospital","NAME2011":"Long Beach","LONGITUDE":-118.193784,"OSHPD_ID":"106190477","SUPD2011":"4","ER":null,"CITY":"LONG BEACH","NAME":"PACIFIC HOSPITAL-SOUTH CAMPUS D/P APH","GEORESULT":"S5HPNTSCZA","MISSING_BE":"Part of 190587","ADDRESS":"1725 PACIFIC AVENUE","LATITUDE":33.788503}},{"geometry":{"type":"Point","coordinates":[-118.395817,34.241191999999636]},"type":"Feature","properties":{"EMS_LEVEL":"Emergency - Basic","BED_AVL":231,"TYPE_CNTRL":"Investor","NON_PROFIT":"N","SPA2011":"2","HOSPITAL":null,"BED_LIC":231,"BED_STF":229,"DSH_HOSP":"DSH","ZIP_CODE":"91352","LEVEL":null,"CLUSTERNAM":"San Fernando","MAPID":"85","A911RH":"YES","LICENSE_CA":"General Acute Care Hospital","NAME2011":"East Valley","LONGITUDE":-118.395817,"OSHPD_ID":"106190696","SUPD2011":"3","ER":"Y","CITY":"SUN VALLEY","NAME":"PACIFICA HOSPITAL OF THE VALLEY","GEORESULT":"S5HPNTSCZA","MISSING_BE":null,"ADDRESS":"9449 SAN FERNANDO ROAD","LATITUDE":34.241192}},{"geometry":{"type":"Point","coordinates":[-118.144271,34.58436799999965]},"type":"Feature","properties":{"EMS_LEVEL":"Emergency - Basic","BED_AVL":0,"TYPE_CNTRL":"Investor","NON_PROFIT":"N","SPA2011":"1","HOSPITAL":null,"BED_LIC":157,"BED_STF":0,"DSH_HOSP":null,"ZIP_CODE":"93551","LEVEL":null,"CLUSTERNAM":"Antelope Valley","MAPID":"86","A911RH":"YES","LICENSE_CA":"General Acute Care Hospital","NAME2011":"Antelope Valley","LONGITUDE":-118.144271,"OSHPD_ID":"106196405","SUPD2011":"5","ER":"Y","CITY":"PALMDALE","NAME":"PALMDALE REGIONAL MEDICAL CENTER","GEORESULT":"S5HPNTSCZA","MISSING_BE":null,"ADDRESS":"38600 MEDICAL CENTER DRIVE","LATITUDE":34.584368}},{"geometry":{"type":"Point","coordinates":[-117.752241,34.077449999999594]},"type":"Feature","properties":{"EMS_LEVEL":"Emergency - Basic","BED_AVL":453,"TYPE_CNTRL":"Non-Profit","NON_PROFIT":"Y","SPA2011":"3","HOSPITAL":null,"BED_LIC":453,"BED_STF":440,"DSH_HOSP":"DSH","ZIP_CODE":"91767","LEVEL":null,"CLUSTERNAM":"Northeast","MAPID":"87","A911RH":"YES","LICENSE_CA":"General Acute Care Hospital","NAME2011":"Pomona","LONGITUDE":-117.752241,"OSHPD_ID":"106190630","SUPD2011":"1","ER":"Y","CITY":"POMONA","NAME":"POMONA VALLEY HOSPITAL MEDICAL CENTER","GEORESULT":"S5HPNTSCZA","MISSING_BE":null,"ADDRESS":"1798 NORTH GAREY AVENUE","LATITUDE":34.07745}},{"geometry":{"type":"Point","coordinates":[-118.048073,33.9675]},"type":"Feature","properties":{"EMS_LEVEL":"Emergency - Basic","BED_AVL":454,"TYPE_CNTRL":"Non-Profit","NON_PROFIT":"Y","SPA2011":"7","HOSPITAL":null,"BED_LIC":454,"BED_STF":221,"DSH_HOSP":"Non-DSH","ZIP_CODE":"90602","LEVEL":null,"CLUSTERNAM":"Northeast","MAPID":"88","A911RH":"YES","LICENSE_CA":"General Acute Care Hospital","NAME2011":"Whittier","LONGITUDE":-118.048073,"OSHPD_ID":"106190631","SUPD2011":"4","ER":"Y","CITY":"WHITTIER","NAME":"PRESBYTERIAN INTERCOMMUNITY HOSPITAL","GEORESULT":"S5H-NTSCZA","MISSING_BE":null,"ADDRESS":"12401 EAST WASHINGTON BLVD.","LATITUDE":33.9675}},{"geometry":{"type":"Point","coordinates":[-118.212216,34.0399769999996]},"type":"Feature","properties":{"EMS_LEVEL":null,"BED_AVL":213,"TYPE_CNTRL":"Investor","NON_PROFIT":"N","SPA2011":"4","HOSPITAL":null,"BED_LIC":213,"BED_STF":174,"DSH_HOSP":"Non-DSH","ZIP_CODE":"90033","LEVEL":null,"CLUSTERNAM":"Northeast","MAPID":"89","A911RH":null,"LICENSE_CA":"General Acute Care Hospital","NAME2011":"Northeast","LONGITUDE":-118.212216,"OSHPD_ID":"106190468","SUPD2011":"1","ER":null,"CITY":"LOS ANGELES","NAME":"PROMISE HOSPITAL OF EAST LOS ANGELES-EAST L.A. CAMPUS","GEORESULT":"S5HPNTSCZA","MISSING_BE":null,"ADDRESS":"443 SOUTH SOTO STREET","LATITUDE":34.039977}},{"geometry":{"type":"Point","coordinates":[-118.161494,33.885214999999626]},"type":"Feature","properties":{"EMS_LEVEL":null,"BED_AVL":0,"TYPE_CNTRL":"Investor","NON_PROFIT":"N","SPA2011":"6","HOSPITAL":null,"BED_LIC":0,"BED_STF":0,"DSH_HOSP":null,"ZIP_CODE":"90723","LEVEL":null,"CLUSTERNAM":"Southwest","MAPID":"90","A911RH":null,"LICENSE_CA":"General Acute Care Hospital","NAME2011":"Compton","LONGITUDE":-118.161494,"OSHPD_ID":"106190599","SUPD2011":"4","ER":null,"CITY":"PARAMOUNT","NAME":"PROMISE HOSPITAL OF EAST LOS ANGELES-SUBURBAN CAMPUS","GEORESULT":"S5H-NTSCZA","MISSING_BE":"Part of 190468","ADDRESS":"16453 SOUTH COLORADO AVENUE","LATITUDE":33.885215}},{"geometry":{"type":"Point","coordinates":[-118.4596,34.27906699999961]},"type":"Feature","properties":{"EMS_LEVEL":"Emergency - Basic","BED_AVL":254,"TYPE_CNTRL":"Non-Profit","NON_PROFIT":"Y","SPA2011":"2","HOSPITAL":"Y","BED_LIC":254,"BED_STF":254,"DSH_HOSP":"DSH","ZIP_CODE":"91345","LEVEL":"2","CLUSTERNAM":"San Fernando","MAPID":"91","A911RH":"YES","LICENSE_CA":"General Acute Care Hospital","NAME2011":"San Fernando","LONGITUDE":-118.4596,"OSHPD_ID":"106190385","SUPD2011":"3","ER":"Y","CITY":"MISSION HILLS","NAME":"PROVIDENCE HOLY CROSS MEDICAL CENTER","GEORESULT":"S5HPNTSCZA","MISSING_BE":null,"ADDRESS":"15031 RINALDI STREET","LATITUDE":34.279067}},{"geometry":{"type":"Point","coordinates":[-118.305275,33.7379649999996]},"type":"Feature","properties":{"EMS_LEVEL":"Emergency - Basic","BED_AVL":324,"TYPE_CNTRL":"Non-Profit","NON_PROFIT":"Y","SPA2011":"8","HOSPITAL":null,"BED_LIC":356,"BED_STF":308,"DSH_HOSP":"DSH","ZIP_CODE":"90732","LEVEL":null,"CLUSTERNAM":"Coastal","MAPID":"92","A911RH":"YES","LICENSE_CA":"General Acute Care Hospital","NAME2011":"Harbor","LONGITUDE":-118.305275,"OSHPD_ID":"106190680","SUPD2011":"4","ER":"Y","CITY":"SAN PEDRO","NAME":"PROVIDENCE LITTLE COMPANY OF MARY MC - SAN PEDRO","GEORESULT":"S5HP--SCZA","MISSING_BE":null,"ADDRESS":"1300 WEST SEVENTH STREET","LATITUDE":33.737965}},{"geometry":{"type":"Point","coordinates":[-118.357161,33.83763199999961]},"type":"Feature","properties":{"EMS_LEVEL":"Emergency - Basic","BED_AVL":403,"TYPE_CNTRL":"Non-Profit","NON_PROFIT":"Y","SPA2011":"8","HOSPITAL":null,"BED_LIC":442,"BED_STF":269,"DSH_HOSP":"Non-DSH","ZIP_CODE":"90503","LEVEL":null,"CLUSTERNAM":"Coastal","MAPID":"93","A911RH":"YES","LICENSE_CA":"General Acute Care Hospital","NAME2011":"Torrance","LONGITUDE":-118.357161,"OSHPD_ID":"106190470","SUPD2011":"4","ER":"Y","CITY":"TORRANCE","NAME":"PROVIDENCE LITTLE COMPANY OF MARY MC - TORRANCE","GEORESULT":"S5HPNTSCZA","MISSING_BE":null,"ADDRESS":"4101 TORRANCE BOULEVARD","LATITUDE":33.837632}},{"geometry":{"type":"Point","coordinates":[-118.327245,34.156285999999625]},"type":"Feature","properties":{"EMS_LEVEL":"Emergency - Basic","BED_AVL":335,"TYPE_CNTRL":"Non-Profit","NON_PROFIT":"Y","SPA2011":"2","HOSPITAL":null,"BED_LIC":335,"BED_STF":251,"DSH_HOSP":"Non-DSH","ZIP_CODE":"91505","LEVEL":null,"CLUSTERNAM":"San Fernando","MAPID":"94","A911RH":"YES","LICENSE_CA":"General Acute Care Hospital","NAME2011":"Glendale","LONGITUDE":-118.327245,"OSHPD_ID":"106190758","SUPD2011":"5","ER":"Y","CITY":"BURBANK","NAME":"PROVIDENCE SAINT JOSEPH MEDICAL CENTER","GEORESULT":"S5HPN-SCZA","MISSING_BE":null,"ADDRESS":"501 SO. BUENA VISTA","LATITUDE":34.156286}},{"geometry":{"type":"Point","coordinates":[-118.531414,34.16982899999961]},"type":"Feature","properties":{"EMS_LEVEL":"Emergency - Basic","BED_AVL":228,"TYPE_CNTRL":"Non-Profit","NON_PROFIT":"Y","SPA2011":"2","HOSPITAL":null,"BED_LIC":245,"BED_STF":228,"DSH_HOSP":"Non-DSH","ZIP_CODE":"91356","LEVEL":null,"CLUSTERNAM":"San Fernando","MAPID":"95","A911RH":"YES","LICENSE_CA":"General Acute Care Hospital","NAME2011":"West Valley","LONGITUDE":-118.531414,"OSHPD_ID":"106190517","SUPD2011":"3","ER":"Y","CITY":"TARZANA","NAME":"PROVIDENCE TARZANA MEDICAL CENTER","GEORESULT":"S5HPNTSCZA","MISSING_BE":null,"ADDRESS":"18321 CLARK STREET","LATITUDE":34.169829}},{"geometry":{"type":"Point","coordinates":[-118.445896,34.06526899999962]},"type":"Feature","properties":{"EMS_LEVEL":null,"BED_AVL":74,"TYPE_CNTRL":"Non-Profit","NON_PROFIT":"Y","SPA2011":"5","HOSPITAL":null,"BED_LIC":74,"BED_STF":74,"DSH_HOSP":"Non-DSH","ZIP_CODE":"90095","LEVEL":null,"CLUSTERNAM":"Northeast","MAPID":"96","A911RH":null,"LICENSE_CA":"Acute Psychiatric Hospital","NAME2011":"West","LONGITUDE":-118.445896,"OSHPD_ID":"106190930","SUPD2011":"3","ER":null,"CITY":"LOS ANGELES","NAME":"RESNICK NEUROPSYCHIATRIC HOSPITAL AT UCLA","GEORESULT":"S5HPNTSCZA","MISSING_BE":null,"ADDRESS":"150 MEDICAL PLAZA","LATITUDE":34.065269}},{"geometry":{"type":"Point","coordinates":[-118.445064,34.06887899999961]},"type":"Feature","properties":{"EMS_LEVEL":"Emergency - Comprehensive","BED_AVL":456,"TYPE_CNTRL":"Non-Profit","NON_PROFIT":"Y","SPA2011":"5","HOSPITAL":"Y","BED_LIC":456,"BED_STF":456,"DSH_HOSP":"Non-DSH","ZIP_CODE":"90095","LEVEL":"1","CLUSTERNAM":"Northeast","MAPID":"97","A911RH":"YES","LICENSE_CA":"General Acute Care Hospital","NAME2011":"West","LONGITUDE":-118.445064,"OSHPD_ID":"106190796","SUPD2011":"3","ER":"Y","CITY":"LOS ANGELES","NAME":"RONALD REAGAN UCLA MEDICAL CENTER","GEORESULT":"S5HPNTSCZA","MISSING_BE":null,"ADDRESS":"757 WESTWOOD PLAZA","LATITUDE":34.068879}},{"geometry":{"type":"Point","coordinates":[-117.834592,34.09930899999962]},"type":"Feature","properties":{"EMS_LEVEL":"Emergency - Basic","BED_AVL":64,"TYPE_CNTRL":"Investor","NON_PROFIT":"N","SPA2011":"3","HOSPITAL":null,"BED_LIC":64,"BED_STF":35,"DSH_HOSP":"Non-DSH","ZIP_CODE":"91773","LEVEL":null,"CLUSTERNAM":"Northeast","MAPID":"98","A911RH":"YES","LICENSE_CA":"General Acute Care Hospital","NAME2011":"Pomona","LONGITUDE":-117.834592,"OSHPD_ID":"106190673","SUPD2011":"5","ER":"Y","CITY":"SAN DIMAS","NAME":"SAN DIMAS COMMUNITY HOSPITAL","GEORESULT":"S5HPNTSCZA","MISSING_BE":null,"ADDRESS":"1350 WEST COVINA BOULEVARD","LATITUDE":34.099309}},{"geometry":{"type":"Point","coordinates":[-118.105213,34.102406999999616]},"type":"Feature","properties":{"EMS_LEVEL":"Emergency - Basic","BED_AVL":231,"TYPE_CNTRL":"Investor","NON_PROFIT":"N","SPA2011":"3","HOSPITAL":null,"BED_LIC":231,"BED_STF":231,"DSH_HOSP":"Non-DSH","ZIP_CODE":"91776","LEVEL":null,"CLUSTERNAM":"Northeast","MAPID":"99","A911RH":"YES","LICENSE_CA":"General Acute Care Hospital","NAME2011":"Alhambra","LONGITUDE":-118.105213,"OSHPD_ID":"106190200","SUPD2011":"5","ER":"Y","CITY":"SAN GABRIEL","NAME":"SAN GABRIEL VALLEY MEDICAL CENTER","GEORESULT":"S5HPNTSCZA","MISSING_BE":null,"ADDRESS":"438 W. LAS TUNAS DRIVE","LATITUDE":34.102407}},{"geometry":{"type":"Point","coordinates":[-118.486194,34.0275969999996]},"type":"Feature","properties":{"EMS_LEVEL":"Emergency - Basic","BED_AVL":315,"TYPE_CNTRL":"Non-Profit","NON_PROFIT":"Y","SPA2011":"5","HOSPITAL":null,"BED_LIC":315,"BED_STF":315,"DSH_HOSP":"Non-DSH","ZIP_CODE":"90404","LEVEL":null,"CLUSTERNAM":"Northeast","MAPID":"100","A911RH":"YES","LICENSE_CA":"General Acute Care Hospital","NAME2011":"West","LONGITUDE":-118.486194,"OSHPD_ID":"106190687","SUPD2011":"3","ER":"Y","CITY":"SANTA MONICA","NAME":"SANTA MONICA - UCLA MEDICAL CENTER & ORTHOPAEDIC HOSPITAL","GEORESULT":"S5HPNTSCZA","MISSING_BE":null,"ADDRESS":"1250 16TH STREET","LATITUDE":34.027597}},{"geometry":{"type":"Point","coordinates":[-118.44877,34.15999299999963]},"type":"Feature","properties":{"EMS_LEVEL":"Emergency - Basic","BED_AVL":153,"TYPE_CNTRL":"Investor","NON_PROFIT":"N","SPA2011":"2","HOSPITAL":null,"BED_LIC":153,"BED_STF":48,"DSH_HOSP":"Non-DSH","ZIP_CODE":"91403","LEVEL":null,"CLUSTERNAM":"San Fernando","MAPID":"101","A911RH":"YES","LICENSE_CA":"General Acute Care Hospital","NAME2011":"West Valley","LONGITUDE":-118.44877,"OSHPD_ID":"106190708","SUPD2011":"3","ER":"Y","CITY":"SHERMAN OAKS","NAME":"SHERMAN OAKS HOSPITAL","GEORESULT":"S5HPNTSCZA","MISSING_BE":null,"ADDRESS":"4929 VAN NUYS BOULEVARD","LATITUDE":34.159993}},{"geometry":{"type":"Point","coordinates":[-118.285993,34.06765699999961]},"type":"Feature","properties":{"EMS_LEVEL":null,"BED_AVL":60,"TYPE_CNTRL":"Non-Profit","NON_PROFIT":"Y","SPA2011":"4","HOSPITAL":null,"BED_LIC":60,"BED_STF":60,"DSH_HOSP":"Non-DSH","ZIP_CODE":"90020","LEVEL":null,"CLUSTERNAM":"Northeast","MAPID":"102","A911RH":null,"LICENSE_CA":"General Acute Care Hospital","NAME2011":"Central","LONGITUDE":-118.285993,"OSHPD_ID":"106190712","SUPD2011":"2","ER":null,"CITY":"LOS ANGELES","NAME":"SHRINERS HOSPITAL FOR  CHILDREN - L.A.","GEORESULT":"S5HPNTSCZA","MISSING_BE":null,"ADDRESS":"3160 GENEVA STREET","LATITUDE":34.067657}},{"geometry":{"type":"Point","coordinates":[-118.263427,34.06880699999961]},"type":"Feature","properties":{"EMS_LEVEL":null,"BED_AVL":186,"TYPE_CNTRL":"Investor","NON_PROFIT":"N","SPA2011":"4","HOSPITAL":null,"BED_LIC":208,"BED_STF":121,"DSH_HOSP":"DSH","ZIP_CODE":"90026","LEVEL":null,"CLUSTERNAM":"Northeast","MAPID":"103","A911RH":null,"LICENSE_CA":"General Acute Care Hospital","NAME2011":"Central","LONGITUDE":-118.263427,"OSHPD_ID":"106190661","SUPD2011":"1","ER":null,"CITY":"LOS ANGELES","NAME":"SILVER LAKE MEDICAL CENTER-DOWNTOWN CAMPUS","GEORESULT":"S5HPNTSCZA","MISSING_BE":null,"ADDRESS":"1711 WEST TEMPLE STREET","LATITUDE":34.068807}},{"geometry":{"type":"Point","coordinates":[-118.106043,34.06981199999963]},"type":"Feature","properties":{"EMS_LEVEL":null,"BED_AVL":0,"TYPE_CNTRL":"Investor","NON_PROFIT":"N","SPA2011":"3","HOSPITAL":null,"BED_LIC":0,"BED_STF":0,"DSH_HOSP":null,"ZIP_CODE":"91770","LEVEL":null,"CLUSTERNAM":"Northeast","MAPID":"104","A911RH":null,"LICENSE_CA":"General Acute Care Hospital","NAME2011":"Alhambra","LONGITUDE":-118.106043,"OSHPD_ID":"106190410","SUPD2011":"1","ER":null,"CITY":"ROSEMEAD","NAME":"SILVER LAKE MEDICAL CENTER-INGLESIDE CAMPUS","GEORESULT":"S5H-NTSCZA","MISSING_BE":"Part of 190661","ADDRESS":"7500 EAST HELLMAN AVENUE","LATITUDE":34.069812}},{"geometry":{"type":"Point","coordinates":[-118.203946,33.93090399999961]},"type":"Feature","properties":{"EMS_LEVEL":"Emergency - Basic","BED_AVL":383,"TYPE_CNTRL":"Non-Profit","NON_PROFIT":"Y","SPA2011":"6","HOSPITAL":"Y","BED_LIC":384,"BED_STF":323,"DSH_HOSP":"DSH","ZIP_CODE":"90262","LEVEL":"2","CLUSTERNAM":"Southwest","MAPID":"105","A911RH":"YES","LICENSE_CA":"General Acute Care Hospital","NAME2011":"Compton","LONGITUDE":-118.203946,"OSHPD_ID":"106190754","SUPD2011":"2","ER":"Y","CITY":"LYNWOOD","NAME":"ST. FRANCIS MEDICAL CENTER","GEORESULT":"S5H-NTSCZA","MISSING_BE":null,"ADDRESS":"3630 IMPERIAL HIGHWAY","LATITUDE":33.930904}},{"geometry":{"type":"Point","coordinates":[-118.478739,34.02979899999961]},"type":"Feature","properties":{"EMS_LEVEL":"Emergency - Basic","BED_AVL":233,"TYPE_CNTRL":"Non-Profit","NON_PROFIT":"Y","SPA2011":"5","HOSPITAL":null,"BED_LIC":265,"BED_STF":233,"DSH_HOSP":"Non-DSH","ZIP_CODE":"90404","LEVEL":null,"CLUSTERNAM":"Northeast","MAPID":"106","A911RH":"YES","LICENSE_CA":"General Acute Care Hospital","NAME2011":"West","LONGITUDE":-118.478739,"OSHPD_ID":"106190756","SUPD2011":"3","ER":"Y","CITY":"SANTA MONICA","NAME":"ST. JOHN'S HEALTH CENTER","GEORESULT":"S5HPNTSCZA","MISSING_BE":null,"ADDRESS":"2121 SANTA MONICA BLVD","LATITUDE":34.029799}},{"geometry":{"type":"Point","coordinates":[-118.186599,33.78002399999961]},"type":"Feature","properties":{"EMS_LEVEL":"Emergency - Basic","BED_AVL":302,"TYPE_CNTRL":"Non-Profit","NON_PROFIT":"Y","SPA2011":"8","HOSPITAL":"Y","BED_LIC":302,"BED_STF":160,"DSH_HOSP":"DSH","ZIP_CODE":"90801","LEVEL":"2","CLUSTERNAM":"Coastal","MAPID":"107","A911RH":"YES","LICENSE_CA":"General Acute Care Hospital","NAME2011":"Long Beach","LONGITUDE":-118.186599,"OSHPD_ID":"106190053","SUPD2011":"4","ER":"Y","CITY":"LONG BEACH","NAME":"ST. MARY MEDICAL CENTER","GEORESULT":"S5HPNTSC-A","MISSING_BE":null,"ADDRESS":"1050 LINDEN AVENUE, BOX 887","LATITUDE":33.780024}},{"geometry":{"type":"Point","coordinates":[-118.273882,34.063348]},"type":"Feature","properties":{"EMS_LEVEL":"Emergency - Standby","BED_AVL":337,"TYPE_CNTRL":"Non-Profit","NON_PROFIT":"Y","SPA2011":"4","HOSPITAL":null,"BED_LIC":366,"BED_STF":192,"DSH_HOSP":"Non-DSH","ZIP_CODE":"90057","LEVEL":null,"CLUSTERNAM":"Northeast","MAPID":"108","A911RH":null,"LICENSE_CA":"General Acute Care Hospital","NAME2011":"Central","LONGITUDE":-118.273882,"OSHPD_ID":"106190762","SUPD2011":"1","ER":"Y","CITY":"LOS ANGELES","NAME":"ST. VINCENT MEDICAL CENTER","GEORESULT":"S5HPNTSCZA","MISSING_BE":null,"ADDRESS":"2131 WEST 3RD STREET","LATITUDE":34.063348}},{"geometry":{"type":"Point","coordinates":[-118.355649,33.823602999999615]},"type":"Feature","properties":{"EMS_LEVEL":null,"BED_AVL":16,"TYPE_CNTRL":"Investor","NON_PROFIT":"N","SPA2011":"8","HOSPITAL":null,"BED_LIC":16,"BED_STF":16,"DSH_HOSP":"Non-DSH","ZIP_CODE":"90505","LEVEL":null,"CLUSTERNAM":"Coastal","MAPID":"109","A911RH":null,"LICENSE_CA":"Psychiatric Health Facility","NAME2011":"Torrance","LONGITUDE":-118.355649,"OSHPD_ID":"106194967","SUPD2011":"4","ER":null,"CITY":"TORRANCE","NAME":"STAR VIEW ADOLESCENT - P H F","GEORESULT":"S5HP--SCZA","MISSING_BE":null,"ADDRESS":"4025 WEST 226 STREET","LATITUDE":33.823603}},{"geometry":{"type":"Point","coordinates":[-118.538942,34.179907999999635]},"type":"Feature","properties":{"EMS_LEVEL":null,"BED_AVL":60,"TYPE_CNTRL":"Non-Profit","NON_PROFIT":"Y","SPA2011":"2","HOSPITAL":null,"BED_LIC":60,"BED_STF":60,"DSH_HOSP":"Non-DSH","ZIP_CODE":"91356","LEVEL":null,"CLUSTERNAM":"San Fernando","MAPID":"110","A911RH":null,"LICENSE_CA":"Acute Psychiatric Hospital","NAME2011":"West Valley","LONGITUDE":-118.538942,"OSHPD_ID":"106190782","SUPD2011":"3","ER":null,"CITY":"TARZANA","NAME":"TARZANA TREATMENT CENTER","GEORESULT":"S5HPNTSCZA","MISSING_BE":null,"ADDRESS":"18646 OXNARD STREET","LATITUDE":34.179908}},{"geometry":{"type":"Point","coordinates":[-118.283724,34.07533099999963]},"type":"Feature","properties":{"EMS_LEVEL":null,"BED_AVL":170,"TYPE_CNTRL":"Investor","NON_PROFIT":"N","SPA2011":"4","HOSPITAL":null,"BED_LIC":170,"BED_STF":170,"DSH_HOSP":"DSH","ZIP_CODE":"90004","LEVEL":null,"CLUSTERNAM":"Northeast","MAPID":"111","A911RH":null,"LICENSE_CA":"General Acute Care Hospital","NAME2011":"Central","LONGITUDE":-118.283724,"OSHPD_ID":"106190784","SUPD2011":"2","ER":null,"CITY":"LOS ANGELES","NAME":"TEMPLE COMMUNITY HOSPITAL","GEORESULT":"S5HPNTSCZA","MISSING_BE":null,"ADDRESS":"235 NORTH HOOVER STREET","LATITUDE":34.075331}},{"geometry":{"type":"Point","coordinates":[-118.196427,33.78938799999962]},"type":"Feature","properties":{"EMS_LEVEL":null,"BED_AVL":63,"TYPE_CNTRL":"Non-Profit","NON_PROFIT":"Y","SPA2011":"8","HOSPITAL":null,"BED_LIC":63,"BED_STF":63,"DSH_HOSP":"Non-DSH","ZIP_CODE":"90813","LEVEL":null,"CLUSTERNAM":"Coastal","MAPID":"112","A911RH":null,"LICENSE_CA":"Chemical Dep. Recovery Hospital","NAME2011":"Long Beach","LONGITUDE":-118.196427,"OSHPD_ID":"106191225","SUPD2011":"4","ER":null,"CITY":"LONG BEACH","NAME":"TOM REDGATE MEMORIAL RECOVERY CENTER","GEORESULT":"S5HPN-SCZA","MISSING_BE":null,"ADDRESS":"1775 CHESTNUT STREET","LATITUDE":33.789388}},{"geometry":{"type":"Point","coordinates":[-118.343797,33.812603999999624]},"type":"Feature","properties":{"EMS_LEVEL":"Emergency - Basic","BED_AVL":377,"TYPE_CNTRL":"Non-Profit","NON_PROFIT":"Y","SPA2011":"8","HOSPITAL":null,"BED_LIC":401,"BED_STF":377,"DSH_HOSP":"Non-DSH","ZIP_CODE":"90505","LEVEL":null,"CLUSTERNAM":"Coastal","MAPID":"113","A911RH":"YES","LICENSE_CA":"General Acute Care Hospital","NAME2011":"Torrance","LONGITUDE":-118.343797,"OSHPD_ID":"106190422","SUPD2011":"4","ER":"Y","CITY":"TORRANCE","NAME":"TORRANCE MEMORIAL MEDICAL CENTER","GEORESULT":"S5H-NTSCZA","MISSING_BE":null,"ADDRESS":"3330 WEST LOMITA BOULEVARD","LATITUDE":33.812604}},{"geometry":{"type":"Point","coordinates":[-118.081724,33.83347999999962]},"type":"Feature","properties":{"EMS_LEVEL":"Emergency - Basic","BED_AVL":107,"TYPE_CNTRL":"Non-Profit","NON_PROFIT":"Y","SPA2011":"7","HOSPITAL":null,"BED_LIC":107,"BED_STF":54,"DSH_HOSP":"Non-DSH","ZIP_CODE":"90716","LEVEL":null,"CLUSTERNAM":"Coastal","MAPID":"114","A911RH":"YES","LICENSE_CA":"General Acute Care Hospital","NAME2011":"Bellflower","LONGITUDE":-118.081724,"OSHPD_ID":"106190159","SUPD2011":"4","ER":"Y","CITY":"HAWAIIAN GARDENS","NAME":"TRI-CITY REGIONAL MEDICAL CENTER","GEORESULT":"S5H-NTSCZA","MISSING_BE":null,"ADDRESS":"21530 SOUTH PIONEER BOULEVARD","LATITUDE":33.83348}},{"geometry":{"type":"Point","coordinates":[-118.204532,34.06168699999962]},"type":"Feature","properties":{"EMS_LEVEL":null,"BED_AVL":60,"TYPE_CNTRL":"Non-Profit","NON_PROFIT":"Y","SPA2011":"4","HOSPITAL":null,"BED_LIC":60,"BED_STF":24,"DSH_HOSP":"Non-DSH","ZIP_CODE":"90033","LEVEL":null,"CLUSTERNAM":"Northeast","MAPID":"115","A911RH":null,"LICENSE_CA":"General Acute Care Hospital","NAME2011":"Northeast","LONGITUDE":-118.204532,"OSHPD_ID":"106191216","SUPD2011":"1","ER":null,"CITY":"LOS ANGELES","NAME":"USC KENNETH NORRIS, JR. CANCER HOSPITAL","GEORESULT":"S5HPNTSC-A","MISSING_BE":null,"ADDRESS":"1441 EASTLAKE AVENUE","LATITUDE":34.061687}},{"geometry":{"type":"Point","coordinates":[-118.4508,34.05649999999961]},"type":"Feature","properties":{"EMS_LEVEL":null,"BED_AVL":0,"TYPE_CNTRL":"Non-Profit","NON_PROFIT":"Y","SPA2011":"5","HOSPITAL":null,"BED_LIC":0,"BED_STF":0,"DSH_HOSP":null,"ZIP_CODE":"90073","LEVEL":null,"CLUSTERNAM":"Northeast","MAPID":"116","A911RH":null,"LICENSE_CA":null,"NAME2011":"West","LONGITUDE":-118.4508,"OSHPD_ID":"106","SUPD2011":"3","ER":null,"CITY":"LOS ANGELES","NAME":"VA GREATER LOS ANGELES HEALTHCARE SYSTEM (GLA)-WEST LA","GEORESULT":"S3HPNTSCZA","MISSING_BE":null,"ADDRESS":"11301 WILSHIRE BLVD","LATITUDE":34.0565}},{"geometry":{"type":"Point","coordinates":[-118.117914,33.775417999999625]},"type":"Feature","properties":{"EMS_LEVEL":null,"BED_AVL":0,"TYPE_CNTRL":"Non-Profit","NON_PROFIT":"Y","SPA2011":"8","HOSPITAL":null,"BED_LIC":0,"BED_STF":0,"DSH_HOSP":null,"ZIP_CODE":"90822","LEVEL":null,"CLUSTERNAM":"Coastal","MAPID":"117","A911RH":null,"LICENSE_CA":null,"NAME2011":"Long Beach","LONGITUDE":-118.117914,"OSHPD_ID":"106","SUPD2011":"4","ER":null,"CITY":"LONG BEACH","NAME":"VA LONG BEACH HEALTHCARE SYSTEM","GEORESULT":"S5HPNTSCZA","MISSING_BE":null,"ADDRESS":"5901 E. 7TH STREET","LATITUDE":33.775418}},{"geometry":{"type":"Point","coordinates":[-118.461995,34.19397399999962]},"type":"Feature","properties":{"EMS_LEVEL":"Emergency - Basic","BED_AVL":348,"TYPE_CNTRL":"Non-Profit","NON_PROFIT":"Y","SPA2011":"2","HOSPITAL":null,"BED_LIC":348,"BED_STF":348,"DSH_HOSP":"DSH","ZIP_CODE":"91405","LEVEL":null,"CLUSTERNAM":"San Fernando","MAPID":"118","A911RH":"YES","LICENSE_CA":"General Acute Care Hospital","NAME2011":"West Valley","LONGITUDE":-118.461995,"OSHPD_ID":"106190812","SUPD2011":"3","ER":"Y","CITY":"VAN NUYS","NAME":"VALLEY PRESBYTERIAN HOSPITAL","GEORESULT":"S5HP-TSCZA","MISSING_BE":null,"ADDRESS":"15107 VAN OWEN STREET","LATITUDE":34.193974}},{"geometry":{"type":"Point","coordinates":[-118.215248,34.20560399999963]},"type":"Feature","properties":{"EMS_LEVEL":"Emergency - Basic","BED_AVL":156,"TYPE_CNTRL":"Non-Profit","NON_PROFIT":"Y","SPA2011":"2","HOSPITAL":null,"BED_LIC":158,"BED_STF":156,"DSH_HOSP":"Non-DSH","ZIP_CODE":"91208","LEVEL":null,"CLUSTERNAM":"San Fernando","MAPID":"119","A911RH":"YES","LICENSE_CA":"General Acute Care Hospital","NAME2011":"Glendale","LONGITUDE":-118.215248,"OSHPD_ID":"106190818","SUPD2011":"5","ER":"Y","CITY":"GLENDALE","NAME":"VERDUGO HILLS HOSPITAL","GEORESULT":"S5HPNTSCZA","MISSING_BE":null,"ADDRESS":"1812 VERDUGO BOULEVARD","LATITUDE":34.205604}},{"geometry":{"type":"Point","coordinates":[-118.629503,34.20372199999963]},"type":"Feature","properties":{"EMS_LEVEL":"Emergency - Basic","BED_AVL":229,"TYPE_CNTRL":"Investor","NON_PROFIT":"N","SPA2011":"2","HOSPITAL":null,"BED_LIC":229,"BED_STF":120,"DSH_HOSP":"Non-DSH","ZIP_CODE":"91307","LEVEL":null,"CLUSTERNAM":"San Fernando","MAPID":"120","A911RH":"YES","LICENSE_CA":"General Acute Care Hospital","NAME2011":"West Valley","LONGITUDE":-118.629503,"OSHPD_ID":"106190859","SUPD2011":"3","ER":"Y","CITY":"CANOGA PARK","NAME":"WEST HILLS HOSPITAL AND MEDICAL CENTER","GEORESULT":"S5HPNTS-ZA","MISSING_BE":null,"ADDRESS":"7300 MEDICAL CENTER DRIVE","LATITUDE":34.203722}},{"geometry":{"type":"Point","coordinates":[-118.217311,34.0510019999996]},"type":"Feature","properties":{"EMS_LEVEL":"Emergency - Basic","BED_AVL":353,"TYPE_CNTRL":"Non-Profit","NON_PROFIT":"Y","SPA2011":"4","HOSPITAL":null,"BED_LIC":353,"BED_STF":274,"DSH_HOSP":"DSH","ZIP_CODE":"90033","LEVEL":null,"CLUSTERNAM":"Northeast","MAPID":"121","A911RH":"YES","LICENSE_CA":"General Acute Care Hospital","NAME2011":"Northeast","LONGITUDE":-118.217311,"OSHPD_ID":"106190878","SUPD2011":"1","ER":"Y","CITY":"LOS ANGELES","NAME":"WHITE MEMORIAL MEDICAL CENTER","GEORESULT":"S5H-NTSCZA","MISSING_BE":null,"ADDRESS":"1720 CESAR E. CHAVEZ AVENUE","LATITUDE":34.051002}},{"geometry":{"type":"Point","coordinates":[-118.005016,33.95079299999962]},"type":"Feature","properties":{"EMS_LEVEL":"Emergency - Basic","BED_AVL":178,"TYPE_CNTRL":"Investor","NON_PROFIT":"N","SPA2011":"7","HOSPITAL":null,"BED_LIC":178,"BED_STF":178,"DSH_HOSP":"DSH","ZIP_CODE":"90605","LEVEL":null,"CLUSTERNAM":"Northeast","MAPID":"122","A911RH":"YES","LICENSE_CA":"General Acute Care Hospital","NAME2011":"Whittier","LONGITUDE":-118.005016,"OSHPD_ID":"106190883","SUPD2011":"4","ER":"Y","CITY":"WHITTIER","NAME":"WHITTIER HOSPITAL MEDICAL CENTER","GEORESULT":"S5HPNTSCZA","MISSING_BE":null,"ADDRESS":"9080 COLIMA ROAD","LATITUDE":33.950793}}]}