{"crs":{"type":"name","properties":{"name":"urn:ogc:def:crs:OGC:1.3:CRS84"}},"type":"FeatureCollection","name":"IndividualCES","features":[{"geometry":{"type":"Point","coordinates":[-118.14877600224892,34.13866101590028]},"type":"Feature","properties":{"City":"Pasadena","Ymax":34.139661,"City_1":"Pasadena","Zipcode":91105,"AddNumTo":null,"State":"CA","Score":100,"Address_2":null,"Valley":"West San Gabriel Valley","Status":"M","Match_type":"A","Address":"412 S Raymond Ave","AddNumFrom":null,"Side":"R","Hours":"Mon-Fri 7:00am-1:30pm","Phone":"626-791-6610","ARC_State":"CA","StPreDir":"S","StDir":null,"Loc_name":"AddressPoint","Match_addr":"412 S Raymond Ave, Pasadena, California, 91105","Postal":"91105","Region":"California","Distance":0,"Name":"Union Station Homeless Services","StAddr":"412 S Raymond Ave","Country":"USA","StName":"Raymond","LangCode":"ENG","Xmax":-118.147777,"Y":34.138661,"X":-118.148777,"ARC_ZIP_Co":"91105","Addr_type":"PointAddress","DisplayX":-118.148431,"DisplayY":34.13866,"ARC_Addres":"412 S Raymond Ave","ARC_City":"Pasadena","AddNum":"412","Rank":null,"StPreType":null,"StType":"Ave","RegionAbbr":"CA","Xmin":-118.149777,"Ymin":34.137661}},{"geometry":{"type":"Point","coordinates":[-118.14136242931536,34.16890334373991]},"type":"Feature","properties":{"City":"Pasadena","Ymax":34.169903,"City_1":"Pasadena","Zipcode":91104,"AddNumTo":"464","State":"CA","Score":100,"Address_2":null,"Valley":"West San Gabriel Valley","Status":"M","Match_type":"A","Address":"444 E Washington Blvd","AddNumFrom":"428","Side":"R","Hours":"Mon-Wed, 9:00am-5:00pm; Thurs, 9:00am-2:00pm","Phone":"626-797-2402","ARC_State":"CA","StPreDir":"E","StDir":null,"Loc_name":"StreetAddress","Match_addr":"444 E Washington Blvd, Pasadena, California, 91104","Postal":"91104","Region":"California","Distance":0,"Name":"Friends in Deed (Females Only)","StAddr":"444 E Washington Blvd","Country":"USA","StName":"Washington","LangCode":"ENG","Xmax":-118.140363,"Y":34.168903,"X":-118.141363,"ARC_ZIP_Co":"91104","Addr_type":"StreetAddress","DisplayX":-118.141363,"DisplayY":34.168903,"ARC_Addres":"444 E Washington Blvd","ARC_City":"Pasadena","AddNum":"444","Rank":null,"StPreType":null,"StType":"Blvd","RegionAbbr":"CA","Xmin":-118.142363,"Ymin":34.167903}},{"geometry":{"type":"Point","coordinates":[-118.10767276050711,34.14957028666258]},"type":"Feature","properties":{"City":"Pasadena","Ymax":34.15057,"City_1":"Pasadena","Zipcode":91107,"AddNumTo":null,"State":"CA","Score":100,"Address_2":null,"Valley":"West San Gabriel Valley","Status":"M","Match_type":"A","Address":"191 N Oak Ave","AddNumFrom":null,"Side":"L","Hours":"Mon-Fri, 9:00am-5:00pm","Phone":"626-584-7420","ARC_State":"CA","StPreDir":"N","StDir":null,"Loc_name":"AddressPoint","Match_addr":"191 N Oak Ave, Pasadena, California, 91107","Postal":"91107","Region":"California","Distance":0,"Name":"Foothill Unity Ctr","StAddr":"191 N Oak Ave","Country":"USA","StName":"Oak","LangCode":"ENG","Xmax":-118.106674,"Y":34.14957,"X":-118.107674,"ARC_ZIP_Co":"91107","Addr_type":"PointAddress","DisplayX":-118.107841,"DisplayY":34.14958,"ARC_Addres":"191 N Oak Ave","ARC_City":"Pasadena","AddNum":"191","Rank":null,"StPreType":null,"StType":"Ave","RegionAbbr":"CA","Xmin":-118.108674,"Ymin":34.14857}},{"geometry":{"type":"Point","coordinates":[-118.02205596438992,34.108493851889534]},"type":"Feature","properties":{"City":"Arcadia","Ymax":34.109494,"City_1":"Arcadia","Zipcode":91006,"AddNumTo":null,"State":"CA","Score":100,"Address_2":null,"Valley":"Central San Gabriel Valley","Status":"M","Match_type":"A","Address":"330 E Live Oak Ave","AddNumFrom":null,"Side":"R","Hours":"Mon-Fri, 9:00am-5:00pm","Phone":"626-821-5858","ARC_State":"CA","StPreDir":"E","StDir":null,"Loc_name":"AddressPoint","Match_addr":"330 E Live Oak Ave, Arcadia, California, 91006","Postal":"91006","Region":"California","Distance":0,"Name":"Arcadia Mental Health","StAddr":"330 E Live Oak Ave","Country":"USA","StName":"Live Oak","LangCode":"ENG","Xmax":-118.021057,"Y":34.108494,"X":-118.022057,"ARC_ZIP_Co":"91006","Addr_type":"PointAddress","DisplayX":-118.021931,"DisplayY":34.10792,"ARC_Addres":"330 E Live Oak Ave","ARC_City":"Arcadia","AddNum":"330","Rank":null,"StPreType":null,"StType":"Ave","RegionAbbr":"CA","Xmin":-118.023057,"Ymin":34.107494}},{"geometry":{"type":"Point","coordinates":[-118.02785792484448,34.087835003143624]},"type":"Feature","properties":{"City":"El Monte","Ymax":34.088835,"City_1":"El Monte","Zipcode":91737,"AddNumTo":null,"State":"CA","Score":97.07,"Address_2":null,"Valley":"Central San Gabriel Valley","Status":"M","Match_type":"A","Address":"4501 Santa Anita Ave","AddNumFrom":null,"Side":"L","Hours":"Mon-Fri, 9:00am-5:00pm","Phone":"626-442-4357","ARC_State":"CA","StPreDir":null,"StDir":null,"Loc_name":"AddressPoint","Match_addr":"4501 Santa Anita Ave, El Monte, California, 91731","Postal":"91731","Region":"California","Distance":0,"Name":"VOA El Monte","StAddr":"4501 Santa Anita Ave","Country":"USA","StName":"Santa Anita","LangCode":"ENG","Xmax":-118.026859,"Y":34.087835,"X":-118.027859,"ARC_ZIP_Co":"91737","Addr_type":"PointAddress","DisplayX":-118.028121,"DisplayY":34.08794,"ARC_Addres":"4501 Santa Anita Ave","ARC_City":"El Monte","AddNum":"4501","Rank":null,"StPreType":null,"StType":"Ave","RegionAbbr":"CA","Xmin":-118.028859,"Ymin":34.086835}},{"geometry":{"type":"Point","coordinates":[-118.00813032688266,34.14254802636954]},"type":"Feature","properties":{"City":"Monrovia","Ymax":34.143548,"City_1":"Monrovia","Zipcode":91016,"AddNumTo":null,"State":"CA","Score":100,"Address_2":null,"Valley":"Central San Gabriel Valley","Status":"M","Match_type":"A","Address":"415 W Chestnut Ave","AddNumFrom":null,"Side":"L","Hours":"Mon-Fri, 9:00am-5:00pm","Phone":"626-358-3486","ARC_State":"CA","StPreDir":"W","StDir":null,"Loc_name":"AddressPoint","Match_addr":"415 W Chestnut Ave, Monrovia, California, 91016","Postal":"91016","Region":"California","Distance":0,"Name":"Foothill Unity Ctr","StAddr":"415 W Chestnut Ave","Country":"USA","StName":"Chestnut","LangCode":"ENG","Xmax":-118.007131,"Y":34.142548,"X":-118.008131,"ARC_ZIP_Co":"91016","Addr_type":"PointAddress","DisplayX":-118.008131,"DisplayY":34.14283,"ARC_Addres":"415 W Chestnut Ave","ARC_City":"Monrovia","AddNum":"415","Rank":null,"StPreType":null,"StType":"Ave","RegionAbbr":"CA","Xmin":-118.009131,"Ymin":34.141548}},{"geometry":{"type":"Point","coordinates":[-117.75245245203395,34.08388505457381]},"type":"Feature","properties":{"City":"Pomona","Ymax":34.084885,"City_1":"Pomona","Zipcode":91767,"AddNumTo":null,"State":"CA","Score":100,"Address_2":null,"Valley":"East San Gabriel Valley","Status":"M","Match_type":"A","Address":"2040 N Garey Ave","AddNumFrom":null,"Side":"R","Hours":"Mon-Fri, 9:00am-5:00pm","Phone":"909-593-4796","ARC_State":"CA","StPreDir":"N","StDir":null,"Loc_name":"AddressPoint","Match_addr":"2040 N Garey Ave, Pomona, California, 91767","Postal":"91767","Region":"California","Distance":0,"Name":"VOA Pomona","StAddr":"2040 N Garey Ave","Country":"USA","StName":"Garey","LangCode":"ENG","Xmax":-117.751453,"Y":34.083885,"X":-117.752453,"ARC_ZIP_Co":"91767","Addr_type":"PointAddress","DisplayX":-117.751831,"DisplayY":34.08363,"ARC_Addres":"2040 N Garey Ave","ARC_City":"Pomona","AddNum":"2040","Rank":null,"StPreType":null,"StType":"Ave","RegionAbbr":"CA","Xmin":-117.753453,"Ymin":34.082885}}]}